{"type":"FeatureCollection","features":[{"type":"Feature","geometry":{"type":"Point","coordinates":[-1.687123,48.099809]},"properties":{"id":"1265","name":"Foyer Rennais","terminus":[],"limits":["07:40:00","19:50:00"],"lines":["0063,0"]}},{"type":"Feature","geometry":{"type":"Point","coordinates":[-1.6912,48.092735]},"properties":{"id":"1273","name":"Saint-Yves","terminus":[],"limits":["07:02:00","18:52:00"],"lines":["0063,1"]}},{"type":"Feature","geometry":{"type":"Point","coordinates":[-1.68619,48.099714]},"properties":{"id":"1276","name":"Foyer Rennais","terminus":[],"limits":["07:05:00","18:55:00"],"lines":["0063,1"]}},{"type":"Feature","geometry":{"type":"Point","coordinates":[-1.712265,48.116416]},"properties":{"id":"1414","name":"Merlin","terminus":[],"limits":["13:16:00","17:02:00"],"lines":["0491,0"]}},{"type":"Feature","geometry":{"type":"Point","coordinates":[-1.711309,48.116261]},"properties":{"id":"1422","name":"Merlin","terminus":[],"limits":["08:15:00","08:15:00"],"lines":["0491,1"]}},{"type":"Feature","geometry":{"type":"Point","coordinates":[-1.723945,48.116622]},"properties":{"id":"1498","name":"Petit Champeaux","terminus":[],"limits":["13:18:00","17:04:00"],"lines":["0491,0"]}},{"type":"Feature","geometry":{"type":"Point","coordinates":[-1.716029,48.1163]},"properties":{"id":"1499","name":"Colin","terminus":[],"limits":["13:17:00","17:03:00"],"lines":["0491,0"]}},{"type":"Feature","geometry":{"type":"Point","coordinates":[-1.715924,48.116133]},"properties":{"id":"1503","name":"Colin","terminus":[],"limits":["08:14:00","08:14:00"],"lines":["0491,1"]}},{"type":"Feature","geometry":{"type":"Point","coordinates":[-1.723158,48.116353]},"properties":{"id":"1504","name":"Petit Champeaux","terminus":[],"limits":["08:12:00","08:12:00"],"lines":["0491,1"]}},{"type":"Feature","geometry":{"type":"Point","coordinates":[-1.695562,48.085329]},"properties":{"id":"1512","name":"Le Guyader","terminus":[],"limits":["07:00:00","18:50:00"],"lines":["0063,1"]}},{"type":"Feature","geometry":{"type":"Point","coordinates":[-1.67439,48.088549]},"properties":{"id":"1534","name":"Henri Fréville","terminus":["0080,1"],"limits":["08:25:00","08:25:00"],"lines":["0080,1"]}},{"type":"Feature","geometry":{"type":"Point","coordinates":[-1.696071,48.084931]},"properties":{"id":"1544","name":"Le Guyader","terminus":[],"limits":["07:47:00","19:54:00"],"lines":["0063,0"]}},{"type":"Feature","geometry":{"type":"Point","coordinates":[-1.715736,48.122525]},"properties":{"id":"1569","name":"Collège Rosa-Parks","terminus":["0491,1"],"limits":["08:27:00","16:59:00"],"lines":["0491,1","0491,0"]}},{"type":"Feature","geometry":{"type":"Point","coordinates":[-1.671317,48.103768]},"properties":{"id":"1575","name":"Gares","terminus":["0063,1"],"limits":["07:10:00","19:45:00"],"lines":["0063,1","0063,0"]}},{"type":"Feature","geometry":{"type":"Point","coordinates":[-1.713425,48.121103]},"properties":{"id":"1594","name":"Kennedy Guyenne","terminus":[],"limits":["08:25:00","16:57:00"],"lines":["0491,1","0491,0"]}},{"type":"Feature","geometry":{"type":"Point","coordinates":[-1.600377,48.116167]},"properties":{"id":"2040","name":"Chalotais","terminus":[],"limits":["08:16:00","08:16:00"],"lines":["0461,1"]}},{"type":"Feature","geometry":{"type":"Point","coordinates":[-1.600734,48.115847]},"properties":{"id":"2051","name":"Chalotais","terminus":[],"limits":["12:43:00","17:50:00"],"lines":["0461,0"]}},{"type":"Feature","geometry":{"type":"Point","coordinates":[-1.602179,48.119961]},"properties":{"id":"2055","name":"Cesson Piscine","terminus":[],"limits":["12:40:00","17:05:00"],"lines":["0461,0"]}},{"type":"Feature","geometry":{"type":"Point","coordinates":[-1.602371,48.120381]},"properties":{"id":"2067","name":"Cesson Piscine","terminus":["0461,1"],"limits":["08:20:00","08:20:00"],"lines":["0461,1"]}},{"type":"Feature","geometry":{"type":"Point","coordinates":[-1.603046,48.099651]},"properties":{"id":"2107","name":"Ménouriais","terminus":[],"limits":["12:54:00","18:01:00"],"lines":["0461,0"]}},{"type":"Feature","geometry":{"type":"Point","coordinates":[-1.566333,48.102308]},"properties":{"id":"2108","name":"Salmondière","terminus":[],"limits":["07:58:00","07:58:00"],"lines":["0461,1"]}},{"type":"Feature","geometry":{"type":"Point","coordinates":[-1.56569,48.102051]},"properties":{"id":"2109","name":"Salmondière","terminus":[],"limits":["13:01:00","18:08:00"],"lines":["0461,0"]}},{"type":"Feature","geometry":{"type":"Point","coordinates":[-1.586757,48.097628]},"properties":{"id":"2110","name":"Touche sur Roche","terminus":[],"limits":["08:01:00","08:01:00"],"lines":["0461,1"]}},{"type":"Feature","geometry":{"type":"Point","coordinates":[-1.586888,48.097971]},"properties":{"id":"2111","name":"Touche sur Roche","terminus":[],"limits":["12:56:00","18:03:00"],"lines":["0461,0"]}},{"type":"Feature","geometry":{"type":"Point","coordinates":[-1.608651,48.108409]},"properties":{"id":"2118","name":"Monniais","terminus":[],"limits":["08:09:00","17:57:00"],"lines":["0461,1","0461,0"]}},{"type":"Feature","geometry":{"type":"Point","coordinates":[-1.580927,48.108229]},"properties":{"id":"2119","name":"Prieuré Forge","terminus":["0461,0"],"limits":["13:04:00","18:13:00"],"lines":["0461,0"]}},{"type":"Feature","geometry":{"type":"Point","coordinates":[-1.580865,48.108133]},"properties":{"id":"2120","name":"Prieuré Forge","terminus":[],"limits":["07:55:00","07:55:00"],"lines":["0461,1"]}},{"type":"Feature","geometry":{"type":"Point","coordinates":[-1.603062,48.099747]},"properties":{"id":"2128","name":"Ménouriais","terminus":[],"limits":["08:03:00","08:03:00"],"lines":["0461,1"]}},{"type":"Feature","geometry":{"type":"Point","coordinates":[-1.69168,48.092405]},"properties":{"id":"2218","name":"Saint-Yves","terminus":[],"limits":["07:44:00","19:52:00"],"lines":["0063,0"]}},{"type":"Feature","geometry":{"type":"Point","coordinates":[-1.697896,48.068729]},"properties":{"id":"2262","name":"Vallon","terminus":[],"limits":["07:50:00","19:58:00"],"lines":["0063,0"]}},{"type":"Feature","geometry":{"type":"Point","coordinates":[-1.77502,48.005026]},"properties":{"id":"2327","name":"Pont-Réan","terminus":[],"limits":["06:38:00","18:30:00"],"lines":["0063,1"]}},{"type":"Feature","geometry":{"type":"Point","coordinates":[-1.773845,48.008586]},"properties":{"id":"2329","name":"Croix Vaisserelle","terminus":[],"limits":["08:05:00","20:10:00"],"lines":["0063,0"]}},{"type":"Feature","geometry":{"type":"Point","coordinates":[-1.761602,48.024043]},"properties":{"id":"2330","name":"Rabine","terminus":[],"limits":["06:43:00","18:35:00"],"lines":["0063,1"]}},{"type":"Feature","geometry":{"type":"Point","coordinates":[-1.761964,48.023807]},"properties":{"id":"2345","name":"Rabine","terminus":[],"limits":["08:01:00","20:07:00"],"lines":["0063,0"]}},{"type":"Feature","geometry":{"type":"Point","coordinates":[-1.773283,48.009141]},"properties":{"id":"2346","name":"Croix Vaisserelle","terminus":[],"limits":["06:39:00","18:31:00"],"lines":["0063,1"]}},{"type":"Feature","geometry":{"type":"Point","coordinates":[-1.775265,48.004724]},"properties":{"id":"2347","name":"Pont-Réan","terminus":["0063,0"],"limits":["08:06:00","20:11:00"],"lines":["0063,0"]}},{"type":"Feature","geometry":{"type":"Point","coordinates":[-1.743438,48.020489]},"properties":{"id":"2365","name":"Brossolette","terminus":["0408,1"],"limits":["08:05:00","17:25:00"],"lines":["0402,1","0402,0","0404,0","0404,1","0408,1","0408,0","0412,1","0412,0","0411,1","0411,0","0409,1","0409,0","0410,1","0410,0"]}},{"type":"Feature","geometry":{"type":"Point","coordinates":[-1.745504,48.026878]},"properties":{"id":"2366","name":"Aire du 8 Mai","terminus":["0401,0","0402,0","0403,0","0405,1","0406,1","0407,0","0413,0"],"limits":["08:10:00","17:25:00"],"lines":["0401,0","0401,1","0402,1","0402,0","0403,0","0403,1","0404,0","0404,1","0405,0","0405,1","0406,1","0406,0","0407,0","0407,1","0408,1","0408,0","0412,1","0412,0","0413,0","0413,1","0411,1","0411,0","0409,1","0409,0","0410,1","0410,0"]}},{"type":"Feature","geometry":{"type":"Point","coordinates":[-1.733602,48.033353]},"properties":{"id":"2367","name":"Anita Conti","terminus":["0404,0","0412,1","0411,1","0409,1","0410,1"],"limits":["08:15:00","17:20:00"],"lines":["0404,0","0404,1","0405,0","0405,1","0406,1","0406,0","0407,0","0407,1","0408,1","0408,0","0412,1","0412,0","0413,0","0413,1","0411,1","0411,0","0409,1","0409,0","0410,1","0410,0"]}},{"type":"Feature","geometry":{"type":"Point","coordinates":[-1.742382,47.987325]},"properties":{"id":"2368","name":"DGA-MI","terminus":[],"limits":["07:40:00","17:27:00"],"lines":["0412,1","0412,0"]}},{"type":"Feature","geometry":{"type":"Point","coordinates":[-1.739796,47.996792]},"properties":{"id":"2371","name":"Roche Marguerite","terminus":[],"limits":["07:38:00","17:25:00"],"lines":["0412,1","0412,0"]}},{"type":"Feature","geometry":{"type":"Point","coordinates":[-1.806596,48.100526]},"properties":{"id":"2502","name":"Lycée Monod","terminus":[],"limits":["07:49:00","08:13:00"],"lines":["0467,0","0466,0","0433,0"]}},{"type":"Feature","geometry":{"type":"Point","coordinates":[-1.801395,48.098908]},"properties":{"id":"2503","name":"Champs Freslons","terminus":[],"limits":["07:50:00","07:50:00"],"lines":["0433,0"]}},{"type":"Feature","geometry":{"type":"Point","coordinates":[-1.796821,48.098973]},"properties":{"id":"2504","name":"L'Autre Lieu","terminus":[],"limits":["07:52:00","07:52:00"],"lines":["0433,0"]}},{"type":"Feature","geometry":{"type":"Point","coordinates":[-1.794453,48.101535]},"properties":{"id":"2505","name":"Bouleaux","terminus":[],"limits":["07:53:00","07:53:00"],"lines":["0433,0"]}},{"type":"Feature","geometry":{"type":"Point","coordinates":[-1.781275,48.097502]},"properties":{"id":"2507","name":"Barberais","terminus":[],"limits":["07:56:00","07:56:00"],"lines":["0433,0"]}},{"type":"Feature","geometry":{"type":"Point","coordinates":[-1.781563,48.09768]},"properties":{"id":"2514","name":"Barberais","terminus":[],"limits":["12:54:00","17:19:00"],"lines":["0433,1"]}},{"type":"Feature","geometry":{"type":"Point","coordinates":[-1.79502,48.101845]},"properties":{"id":"2516","name":"Bouleaux","terminus":[],"limits":["13:05:00","17:30:00"],"lines":["0433,1"]}},{"type":"Feature","geometry":{"type":"Point","coordinates":[-1.796733,48.099367]},"properties":{"id":"2517","name":"L'Autre Lieu","terminus":[],"limits":["13:07:00","17:32:00"],"lines":["0433,1"]}},{"type":"Feature","geometry":{"type":"Point","coordinates":[-1.802088,48.099326]},"properties":{"id":"2518","name":"Champs Freslons","terminus":[],"limits":["13:08:00","17:33:00"],"lines":["0433,1"]}},{"type":"Feature","geometry":{"type":"Point","coordinates":[-1.806904,48.100897]},"properties":{"id":"2519","name":"Lycée Monod","terminus":["0433,1"],"limits":["13:10:00","17:35:00"],"lines":["0467,1","0466,1","0433,1"]}},{"type":"Feature","geometry":{"type":"Point","coordinates":[-1.800305,48.098948]},"properties":{"id":"2534","name":"Collège Brassens","terminus":["0467,0","0466,0"],"limits":["08:15:00","17:20:00"],"lines":["0467,0","0467,1","0466,0","0466,1"]}},{"type":"Feature","geometry":{"type":"Point","coordinates":[-1.787351,48.102407]},"properties":{"id":"2537","name":"Gaston Bardet","terminus":[],"limits":["13:04:00","17:29:00"],"lines":["0433,1"]}},{"type":"Feature","geometry":{"type":"Point","coordinates":[-1.787379,48.102271]},"properties":{"id":"2538","name":"Gaston Bardet","terminus":[],"limits":["07:54:00","07:54:00"],"lines":["0433,0"]}},{"type":"Feature","geometry":{"type":"Point","coordinates":[-1.603959,48.044735]},"properties":{"id":"2603","name":"La Poste","terminus":["0420,0"],"limits":["07:45:00","07:45:00"],"lines":["0420,0"]}},{"type":"Feature","geometry":{"type":"Point","coordinates":[-1.603907,48.044566]},"properties":{"id":"2619","name":"La Poste","terminus":[],"limits":["12:35:00","17:10:00"],"lines":["0420,0"]}},{"type":"Feature","geometry":{"type":"Point","coordinates":[-1.700988,48.059075]},"properties":{"id":"2701","name":"Janais","terminus":[],"limits":["06:54:00","18:45:00"],"lines":["0063,1"]}},{"type":"Feature","geometry":{"type":"Point","coordinates":[-1.697574,48.06843]},"properties":{"id":"2702","name":"Vallon","terminus":[],"limits":["06:55:00","18:46:00"],"lines":["0063,1"]}},{"type":"Feature","geometry":{"type":"Point","coordinates":[-1.7013,48.059279]},"properties":{"id":"2704","name":"Janais","terminus":["0063,0"],"limits":["07:51:00","19:59:00"],"lines":["0063,0"]}},{"type":"Feature","geometry":{"type":"Point","coordinates":[-1.659799,48.02908]},"properties":{"id":"2705","name":"Bray","terminus":[],"limits":["07:37:00","07:53:00"],"lines":["0403,0","0482,0"]}},{"type":"Feature","geometry":{"type":"Point","coordinates":[-1.670722,48.038455]},"properties":{"id":"2706","name":"Molène","terminus":[],"limits":["07:58:00","07:58:00"],"lines":["0401,0"]}},{"type":"Feature","geometry":{"type":"Point","coordinates":[-1.670616,48.038355]},"properties":{"id":"2723","name":"Molène","terminus":[],"limits":["12:57:00","17:27:00"],"lines":["0401,1"]}},{"type":"Feature","geometry":{"type":"Point","coordinates":[-1.659907,48.028619]},"properties":{"id":"2724","name":"Bray","terminus":["0403,1"],"limits":["12:48:00","17:39:00"],"lines":["0403,1","0482,1"]}},{"type":"Feature","geometry":{"type":"Point","coordinates":[-1.676476,48.03955]},"properties":{"id":"2725","name":"Guyomerais","terminus":[],"limits":["12:56:00","17:26:00"],"lines":["0401,1"]}},{"type":"Feature","geometry":{"type":"Point","coordinates":[-1.676723,48.039685]},"properties":{"id":"2726","name":"Guyomerais","terminus":[],"limits":["07:59:00","07:59:00"],"lines":["0401,0"]}},{"type":"Feature","geometry":{"type":"Point","coordinates":[-1.666525,48.038446]},"properties":{"id":"2727","name":"Pont","terminus":[],"limits":["07:41:00","07:55:00"],"lines":["0403,0","0482,0"]}},{"type":"Feature","geometry":{"type":"Point","coordinates":[-1.66691,48.038628]},"properties":{"id":"2732","name":"Pont","terminus":[],"limits":["12:44:00","17:36:00"],"lines":["0403,1","0482,1"]}},{"type":"Feature","geometry":{"type":"Point","coordinates":[-1.663402,48.034197]},"properties":{"id":"2733","name":"Côteaux","terminus":[],"limits":["12:46:00","17:38:00"],"lines":["0403,1","0482,1"]}},{"type":"Feature","geometry":{"type":"Point","coordinates":[-1.663421,48.034436]},"properties":{"id":"2734","name":"Côteaux","terminus":[],"limits":["07:39:00","07:54:00"],"lines":["0403,0","0482,0"]}},{"type":"Feature","geometry":{"type":"Point","coordinates":[-1.663662,48.041711]},"properties":{"id":"2735","name":"Horizon","terminus":[],"limits":["07:56:00","07:56:00"],"lines":["0401,0"]}},{"type":"Feature","geometry":{"type":"Point","coordinates":[-1.641486,48.049017]},"properties":{"id":"2742","name":"Noyal La Touche","terminus":[],"limits":["07:40:00","07:40:00"],"lines":["0401,0"]}},{"type":"Feature","geometry":{"type":"Point","coordinates":[-1.656419,48.041997]},"properties":{"id":"2747","name":"Lotissement du Moulin","terminus":[],"limits":["07:53:00","17:38:00"],"lines":["0401,0","0452,0","0452,1"]}},{"type":"Feature","geometry":{"type":"Point","coordinates":[-1.680543,48.039253]},"properties":{"id":"2750","name":"Monts Gaultier","terminus":[],"limits":["08:00:00","08:00:00"],"lines":["0401,0"]}},{"type":"Feature","geometry":{"type":"Point","coordinates":[-1.679953,48.03936]},"properties":{"id":"2751","name":"Monts Gaultier","terminus":[],"limits":["12:55:00","17:25:00"],"lines":["0401,1"]}},{"type":"Feature","geometry":{"type":"Point","coordinates":[-1.68703,48.052886]},"properties":{"id":"2753","name":"Abords Launay","terminus":[],"limits":["07:41:00","17:22:00"],"lines":["0403,1","0452,0","0452,1","0482,1"]}},{"type":"Feature","geometry":{"type":"Point","coordinates":[-1.687059,48.052963]},"properties":{"id":"2754","name":"Abords Launay","terminus":[],"limits":["07:49:00","08:08:00"],"lines":["0403,0","0482,0"]}},{"type":"Feature","geometry":{"type":"Point","coordinates":[-1.663433,48.059593]},"properties":{"id":"2755","name":"Abords Rouvray","terminus":[],"limits":["13:08:00","17:42:00"],"lines":["0401,1","0452,1"]}},{"type":"Feature","geometry":{"type":"Point","coordinates":[-1.66363,48.059464]},"properties":{"id":"2756","name":"Abords Rouvray","terminus":[],"limits":["07:48:00","07:48:00"],"lines":["0401,0"]}},{"type":"Feature","geometry":{"type":"Point","coordinates":[-1.630343,48.042026]},"properties":{"id":"2757","name":"Boisardière","terminus":[],"limits":["07:50:00","17:32:00"],"lines":["0452,0","0452,1"]}},{"type":"Feature","geometry":{"type":"Point","coordinates":[-1.639566,48.052721]},"properties":{"id":"2758","name":"Couasmes","terminus":[],"limits":["07:41:00","07:41:00"],"lines":["0401,0"]}},{"type":"Feature","geometry":{"type":"Point","coordinates":[-1.663416,48.041679]},"properties":{"id":"2759","name":"Horizon","terminus":[],"limits":["12:59:00","17:29:00"],"lines":["0401,1"]}},{"type":"Feature","geometry":{"type":"Point","coordinates":[-1.673538,48.04483]},"properties":{"id":"2761","name":"Lande de Pinçon","terminus":[],"limits":["08:06:00","08:06:00"],"lines":["0403,0"]}},{"type":"Feature","geometry":{"type":"Point","coordinates":[-1.673572,48.044688]},"properties":{"id":"2762","name":"Lande de Pinçon","terminus":[],"limits":["07:43:00","17:24:00"],"lines":["0403,1","0452,0","0452,1"]}},{"type":"Feature","geometry":{"type":"Point","coordinates":[-1.659257,48.067167]},"properties":{"id":"2763","name":"Launay Hyon","terminus":[],"limits":["13:09:00","17:43:00"],"lines":["0401,1","0452,1"]}},{"type":"Feature","geometry":{"type":"Point","coordinates":[-1.659266,48.067247]},"properties":{"id":"2764","name":"Launay Hyon","terminus":[],"limits":["07:45:00","07:45:00"],"lines":["0401,0"]}},{"type":"Feature","geometry":{"type":"Point","coordinates":[-1.656314,48.041899]},"properties":{"id":"2765","name":"Lotissement du Moulin","terminus":[],"limits":["13:03:00","17:33:00"],"lines":["0401,1"]}},{"type":"Feature","geometry":{"type":"Point","coordinates":[-1.678589,48.047705]},"properties":{"id":"2766","name":"Monceau","terminus":[],"limits":["12:53:00","17:23:00"],"lines":["0403,1"]}},{"type":"Feature","geometry":{"type":"Point","coordinates":[-1.678619,48.047781]},"properties":{"id":"2767","name":"Monceau","terminus":[],"limits":["08:07:00","08:07:00"],"lines":["0403,0"]}},{"type":"Feature","geometry":{"type":"Point","coordinates":[-1.639682,48.052734]},"properties":{"id":"2768","name":"Couasmes","terminus":[],"limits":["13:13:00","17:43:00"],"lines":["0401,1"]}},{"type":"Feature","geometry":{"type":"Point","coordinates":[-1.641621,48.04884]},"properties":{"id":"2769","name":"Noyal La Touche","terminus":["0401,1","0452,1"],"limits":["13:14:00","17:52:00"],"lines":["0401,1","0452,1"]}},{"type":"Feature","geometry":{"type":"Point","coordinates":[-1.641799,48.038426]},"properties":{"id":"2770","name":"Les Places","terminus":[],"limits":["07:53:00","17:35:00"],"lines":["0452,0","0452,1"]}},{"type":"Feature","geometry":{"type":"Point","coordinates":[-1.694164,48.054926]},"properties":{"id":"2771","name":"Cours d'A Haut","terminus":[],"limits":["07:40:00","17:19:00"],"lines":["0452,0","0452,1"]}},{"type":"Feature","geometry":{"type":"Point","coordinates":[-1.676774,48.16048]},"properties":{"id":"2841","name":"Jean-Paul II","terminus":["0475,0"],"limits":["08:05:00","17:34:00"],"lines":["0475,0","0475,1"]}},{"type":"Feature","geometry":{"type":"Point","coordinates":[-1.707228,48.033268]},"properties":{"id":"2911","name":"Parc de Loisirs","terminus":[],"limits":["13:00:00","17:30:00"],"lines":["0413,1"]}},{"type":"Feature","geometry":{"type":"Point","coordinates":[-1.70627,48.035455]},"properties":{"id":"2912","name":"Argoat","terminus":[],"limits":["13:01:00","17:31:00"],"lines":["0413,1"]}},{"type":"Feature","geometry":{"type":"Point","coordinates":[-1.69941,48.034611]},"properties":{"id":"2913","name":"Cornouaille","terminus":[],"limits":["13:02:00","17:32:00"],"lines":["0413,1"]}},{"type":"Feature","geometry":{"type":"Point","coordinates":[-1.697008,48.036918]},"properties":{"id":"2914","name":"Vieux Bourg","terminus":["0413,1"],"limits":["13:04:00","17:34:00"],"lines":["0413,1"]}},{"type":"Feature","geometry":{"type":"Point","coordinates":[-1.697209,48.037057]},"properties":{"id":"2922","name":"Vieux Bourg","terminus":[],"limits":["07:57:00","07:57:00"],"lines":["0413,0"]}},{"type":"Feature","geometry":{"type":"Point","coordinates":[-1.699894,48.034735]},"properties":{"id":"2923","name":"Cornouaille","terminus":[],"limits":["07:58:00","07:58:00"],"lines":["0413,0"]}},{"type":"Feature","geometry":{"type":"Point","coordinates":[-1.706095,48.035534]},"properties":{"id":"2924","name":"Argoat","terminus":[],"limits":["07:59:00","07:59:00"],"lines":["0413,0"]}},{"type":"Feature","geometry":{"type":"Point","coordinates":[-1.707484,48.033169]},"properties":{"id":"2927","name":"Parc de Loisirs","terminus":[],"limits":["08:00:00","08:00:00"],"lines":["0413,0"]}},{"type":"Feature","geometry":{"type":"Point","coordinates":[-1.708755,48.031429]},"properties":{"id":"2928","name":"Constant Mérel","terminus":[],"limits":["12:59:00","17:29:00"],"lines":["0413,1"]}},{"type":"Feature","geometry":{"type":"Point","coordinates":[-1.709248,48.031247]},"properties":{"id":"2930","name":"Constant Mérel","terminus":[],"limits":["08:01:00","08:01:00"],"lines":["0413,0"]}},{"type":"Feature","geometry":{"type":"Point","coordinates":[-1.696207,48.042032]},"properties":{"id":"2942","name":"Collège Pôle Sud","terminus":["0482,0"],"limits":["07:55:00","17:00:00"],"lines":["0482,0","0482,1"]}},{"type":"Feature","geometry":{"type":"Point","coordinates":[-1.792262,48.150803]},"properties":{"id":"3102","name":"Pie Neuve","terminus":[],"limits":["08:04:00","08:04:00"],"lines":["0443,1"]}},{"type":"Feature","geometry":{"type":"Point","coordinates":[-1.788989,48.149232]},"properties":{"id":"3103","name":"Docteur Léon","terminus":[],"limits":["08:05:00","08:05:00"],"lines":["0443,1"]}},{"type":"Feature","geometry":{"type":"Point","coordinates":[-1.784791,48.148463]},"properties":{"id":"3104","name":"Touche Milon","terminus":[],"limits":["08:06:00","08:06:00"],"lines":["0443,1"]}},{"type":"Feature","geometry":{"type":"Point","coordinates":[-1.785006,48.1486]},"properties":{"id":"3120","name":"Touche Milon","terminus":[],"limits":["12:45:00","17:15:00"],"lines":["0443,0"]}},{"type":"Feature","geometry":{"type":"Point","coordinates":[-1.789012,48.149381]},"properties":{"id":"3121","name":"Docteur Léon","terminus":[],"limits":["12:46:00","17:16:00"],"lines":["0443,0"]}},{"type":"Feature","geometry":{"type":"Point","coordinates":[-1.79217,48.151102]},"properties":{"id":"3122","name":"Pie Neuve","terminus":[],"limits":["12:47:00","17:17:00"],"lines":["0443,0"]}},{"type":"Feature","geometry":{"type":"Point","coordinates":[-1.794838,48.130634]},"properties":{"id":"3148","name":"Bas Sommier","terminus":[],"limits":["07:52:00","17:29:00"],"lines":["0446,1","0446,0"]}},{"type":"Feature","geometry":{"type":"Point","coordinates":[-1.789083,48.135569]},"properties":{"id":"3154","name":"Pré Hervy","terminus":[],"limits":["07:53:00","17:29:00"],"lines":["0446,1","0446,0"]}},{"type":"Feature","geometry":{"type":"Point","coordinates":[-1.771231,48.152311]},"properties":{"id":"3162","name":"Centre scolaire Pacé","terminus":["0441,0","0443,1","0445,0","0446,1","0444,0"],"limits":["08:15:00","17:10:00"],"lines":["0441,0","0441,1","0443,1","0443,0","0445,0","0445,1","0446,1","0446,0","0444,0","0444,1"]}},{"type":"Feature","geometry":{"type":"Point","coordinates":[-1.772121,48.135578]},"properties":{"id":"3164","name":"Sorinais","terminus":["0446,0"],"limits":["07:56:00","17:33:00"],"lines":["0446,1","0446,0"]}},{"type":"Feature","geometry":{"type":"Point","coordinates":[-1.775143,48.179654]},"properties":{"id":"3177","name":"La Foucherais","terminus":[],"limits":["12:49:00","17:19:00"],"lines":["0445,1"]}},{"type":"Feature","geometry":{"type":"Point","coordinates":[-1.77501,48.179545]},"properties":{"id":"3178","name":"La Foucherais","terminus":[],"limits":["08:04:00","08:04:00"],"lines":["0445,0"]}},{"type":"Feature","geometry":{"type":"Point","coordinates":[-1.646041,47.96981]},"properties":{"id":"3201","name":"Fort Joual","terminus":[],"limits":["07:45:00","07:45:00"],"lines":["0405,1"]}},{"type":"Feature","geometry":{"type":"Point","coordinates":[-1.651256,47.975399]},"properties":{"id":"3202","name":"Frogerais","terminus":[],"limits":["07:47:00","07:47:00"],"lines":["0405,1"]}},{"type":"Feature","geometry":{"type":"Point","coordinates":[-1.657445,47.976283]},"properties":{"id":"3203","name":"Petite Rochelle","terminus":[],"limits":["07:48:00","07:48:00"],"lines":["0405,1"]}},{"type":"Feature","geometry":{"type":"Point","coordinates":[-1.660015,47.983336]},"properties":{"id":"3204","name":"Télégraphe","terminus":[],"limits":["07:49:00","17:34:00"],"lines":["0405,0","0405,1","0453,0"]}},{"type":"Feature","geometry":{"type":"Point","coordinates":[-1.657175,47.976081]},"properties":{"id":"3205","name":"Petite Rochelle","terminus":[],"limits":["13:03:00","17:36:00"],"lines":["0405,0","0453,0"]}},{"type":"Feature","geometry":{"type":"Point","coordinates":[-1.652392,47.975387]},"properties":{"id":"3206","name":"Frogerais","terminus":[],"limits":["13:04:00","17:37:00"],"lines":["0405,0","0453,0"]}},{"type":"Feature","geometry":{"type":"Point","coordinates":[-1.645797,47.969624]},"properties":{"id":"3207","name":"Fort Joual","terminus":[],"limits":["13:07:00","17:39:00"],"lines":["0405,0","0453,0"]}},{"type":"Feature","geometry":{"type":"Point","coordinates":[-1.668787,47.992563]},"properties":{"id":"3209","name":"Surcouf","terminus":[],"limits":["07:56:00","07:56:00"],"lines":["0405,1"]}},{"type":"Feature","geometry":{"type":"Point","coordinates":[-1.670694,47.995]},"properties":{"id":"3210","name":"Coteau","terminus":[],"limits":["07:53:00","07:53:00"],"lines":["0406,1"]}},{"type":"Feature","geometry":{"type":"Point","coordinates":[-1.668431,47.997273]},"properties":{"id":"3211","name":"Groupe Scolaire","terminus":[],"limits":["07:55:00","07:55:00"],"lines":["0406,1"]}},{"type":"Feature","geometry":{"type":"Point","coordinates":[-1.666758,48.000737]},"properties":{"id":"3212","name":"Levant","terminus":[],"limits":["07:57:00","07:59:00"],"lines":["0405,1","0406,1"]}},{"type":"Feature","geometry":{"type":"Point","coordinates":[-1.66592,48.009507]},"properties":{"id":"3213","name":"Plardière","terminus":[],"limits":["07:59:00","07:59:00"],"lines":["0406,1"]}},{"type":"Feature","geometry":{"type":"Point","coordinates":[-1.666195,48.009532]},"properties":{"id":"3216","name":"Plardière","terminus":[],"limits":["12:44:00","17:34:00"],"lines":["0406,0","0453,0"]}},{"type":"Feature","geometry":{"type":"Point","coordinates":[-1.667155,48.000471]},"properties":{"id":"3217","name":"Levant","terminus":[],"limits":["12:56:00","17:36:00"],"lines":["0405,0","0406,0"]}},{"type":"Feature","geometry":{"type":"Point","coordinates":[-1.669051,47.996919]},"properties":{"id":"3218","name":"Groupe Scolaire","terminus":[],"limits":["13:07:00","17:37:00"],"lines":["0406,0"]}},{"type":"Feature","geometry":{"type":"Point","coordinates":[-1.670982,47.994968]},"properties":{"id":"3219","name":"Coteau","terminus":[],"limits":["13:09:00","17:39:00"],"lines":["0406,0"]}},{"type":"Feature","geometry":{"type":"Point","coordinates":[-1.6679,47.992216]},"properties":{"id":"3220","name":"Surcouf","terminus":[],"limits":["12:54:00","17:28:00"],"lines":["0405,0","0453,0"]}},{"type":"Feature","geometry":{"type":"Point","coordinates":[-1.674649,47.976836]},"properties":{"id":"3222","name":"Belle Etoile","terminus":[],"limits":["07:48:00","07:48:00"],"lines":["0406,1"]}},{"type":"Feature","geometry":{"type":"Point","coordinates":[-1.684894,47.962608]},"properties":{"id":"3225","name":"ZA L'Hermitière","terminus":[],"limits":["07:44:00","07:44:00"],"lines":["0406,1"]}},{"type":"Feature","geometry":{"type":"Point","coordinates":[-1.673184,47.986121]},"properties":{"id":"3228","name":"Abords Plessette","terminus":[],"limits":["13:11:00","17:41:00"],"lines":["0406,0"]}},{"type":"Feature","geometry":{"type":"Point","coordinates":[-1.673079,47.986069]},"properties":{"id":"3229","name":"Abords Plessette","terminus":[],"limits":["07:50:00","07:50:00"],"lines":["0406,1"]}},{"type":"Feature","geometry":{"type":"Point","coordinates":[-1.674772,47.976695]},"properties":{"id":"3230","name":"Belle Etoile","terminus":[],"limits":["13:12:00","17:42:00"],"lines":["0406,0"]}},{"type":"Feature","geometry":{"type":"Point","coordinates":[-1.659775,47.978188]},"properties":{"id":"3233","name":"Clos Vezins","terminus":[],"limits":["07:48:00","07:48:00"],"lines":["0405,1"]}},{"type":"Feature","geometry":{"type":"Point","coordinates":[-1.65309,47.984828]},"properties":{"id":"3235","name":"La Rochelle","terminus":[],"limits":["12:59:00","17:32:00"],"lines":["0405,0","0453,0"]}},{"type":"Feature","geometry":{"type":"Point","coordinates":[-1.66102,48.008589]},"properties":{"id":"3236","name":"Mandonnais","terminus":[],"limits":["12:48:00","17:18:00"],"lines":["0451,1"]}},{"type":"Feature","geometry":{"type":"Point","coordinates":[-1.661089,48.008624]},"properties":{"id":"3237","name":"Mandonnais","terminus":[],"limits":["07:58:00","07:58:00"],"lines":["0451,0"]}},{"type":"Feature","geometry":{"type":"Point","coordinates":[-1.672203,47.991805]},"properties":{"id":"3238","name":"Blés d'Or","terminus":[],"limits":["07:51:00","07:51:00"],"lines":["0406,1"]}},{"type":"Feature","geometry":{"type":"Point","coordinates":[-1.67231,47.99191]},"properties":{"id":"3239","name":"Blés d'Or","terminus":[],"limits":["13:10:00","17:40:00"],"lines":["0406,0"]}},{"type":"Feature","geometry":{"type":"Point","coordinates":[-1.648028,48.000067]},"properties":{"id":"3240","name":"Moisonnais","terminus":[],"limits":["12:51:00","17:21:00"],"lines":["0451,1"]}},{"type":"Feature","geometry":{"type":"Point","coordinates":[-1.64796,48.000042]},"properties":{"id":"3241","name":"Moisonnais","terminus":[],"limits":["07:56:00","07:56:00"],"lines":["0451,0"]}},{"type":"Feature","geometry":{"type":"Point","coordinates":[-1.655775,48.008676]},"properties":{"id":"3242","name":"Montenay","terminus":[],"limits":["07:57:00","07:57:00"],"lines":["0451,0"]}},{"type":"Feature","geometry":{"type":"Point","coordinates":[-1.65579,48.008597]},"properties":{"id":"3243","name":"Montenay","terminus":[],"limits":["12:49:00","17:19:00"],"lines":["0451,1"]}},{"type":"Feature","geometry":{"type":"Point","coordinates":[-1.648605,47.972883]},"properties":{"id":"3244","name":"Violais","terminus":[],"limits":["07:46:00","07:46:00"],"lines":["0405,1"]}},{"type":"Feature","geometry":{"type":"Point","coordinates":[-1.681718,47.964349]},"properties":{"id":"3245","name":"L'Hermitière Village","terminus":[],"limits":["13:15:00","17:50:00"],"lines":["0406,0","0453,0"]}},{"type":"Feature","geometry":{"type":"Point","coordinates":[-1.668891,48.002386]},"properties":{"id":"3246","name":"Collège Récipon","terminus":["0456,1","0455,1","0454,0","0451,0"],"limits":["07:51:00","17:17:00"],"lines":["0404,0","0456,1","0456,0","0455,1","0455,0","0454,0","0454,1","0453,0","0451,0","0451,1"]}},{"type":"Feature","geometry":{"type":"Point","coordinates":[-1.652976,47.984712]},"properties":{"id":"3247","name":"La Rochelle","terminus":[],"limits":["07:51:00","07:51:00"],"lines":["0405,1"]}},{"type":"Feature","geometry":{"type":"Point","coordinates":[-1.685005,47.962638]},"properties":{"id":"3248","name":"ZA L'Hermitière","terminus":[],"limits":["13:16:00","17:52:00"],"lines":["0406,0","0453,0"]}},{"type":"Feature","geometry":{"type":"Point","coordinates":[-1.681099,47.964046]},"properties":{"id":"3251","name":"L'Hermitière Village","terminus":[],"limits":["07:45:00","07:45:00"],"lines":["0406,1"]}},{"type":"Feature","geometry":{"type":"Point","coordinates":[-1.680997,47.959097]},"properties":{"id":"3252","name":"Grée du Menay","terminus":[],"limits":["07:43:00","07:43:00"],"lines":["0406,1"]}},{"type":"Feature","geometry":{"type":"Point","coordinates":[-1.681153,47.959244]},"properties":{"id":"3253","name":"Grée du Menay","terminus":[],"limits":["13:17:00","17:47:00"],"lines":["0406,0"]}},{"type":"Feature","geometry":{"type":"Point","coordinates":[-1.674641,47.976424]},"properties":{"id":"3254","name":"Belle Etoile","terminus":[],"limits":["13:19:00","17:48:00"],"lines":["0453,0"]}},{"type":"Feature","geometry":{"type":"Point","coordinates":[-1.648727,47.972826]},"properties":{"id":"3255","name":"Violais","terminus":[],"limits":["13:05:00","17:38:00"],"lines":["0405,0","0453,0"]}},{"type":"Feature","geometry":{"type":"Point","coordinates":[-1.659888,47.97809]},"properties":{"id":"3256","name":"Clos Vezins","terminus":[],"limits":["13:02:00","17:35:00"],"lines":["0405,0","0453,0"]}},{"type":"Feature","geometry":{"type":"Point","coordinates":[-1.665736,48.005371]},"properties":{"id":"3257","name":"Haye Longue","terminus":[],"limits":["12:45:00","17:35:00"],"lines":["0406,0","0453,0"]}},{"type":"Feature","geometry":{"type":"Point","coordinates":[-1.665581,48.00539]},"properties":{"id":"3258","name":"Haye Longue","terminus":[],"limits":["07:58:00","07:58:00"],"lines":["0406,1"]}},{"type":"Feature","geometry":{"type":"Point","coordinates":[-1.547245,48.021901]},"properties":{"id":"3418","name":"La Tertronais","terminus":[],"limits":["07:24:00","17:29:00"],"lines":["0420,0"]}},{"type":"Feature","geometry":{"type":"Point","coordinates":[-1.528971,48.032986]},"properties":{"id":"3422","name":"Venecelle","terminus":[],"limits":["07:17:00","17:22:00"],"lines":["0420,0"]}},{"type":"Feature","geometry":{"type":"Point","coordinates":[-1.535639,48.026192]},"properties":{"id":"3423","name":"Le Gobigné","terminus":[],"limits":["07:19:00","17:24:00"],"lines":["0420,0"]}},{"type":"Feature","geometry":{"type":"Point","coordinates":[-1.539707,48.016703]},"properties":{"id":"3424","name":"Epron","terminus":[],"limits":["07:22:00","17:27:00"],"lines":["0420,0"]}},{"type":"Feature","geometry":{"type":"Point","coordinates":[-1.551321,48.0287]},"properties":{"id":"3425","name":"L'Ourmais","terminus":[],"limits":["07:26:00","17:31:00"],"lines":["0420,0"]}},{"type":"Feature","geometry":{"type":"Point","coordinates":[-1.563062,48.029538]},"properties":{"id":"3426","name":"La Croix de l'Epine","terminus":["0420,0"],"limits":["07:28:00","17:33:00"],"lines":["0420,0"]}},{"type":"Feature","geometry":{"type":"Point","coordinates":[-1.540907,48.039904]},"properties":{"id":"3427","name":"Chêne Centenaire","terminus":[],"limits":["07:31:00","17:20:00"],"lines":["0420,0"]}},{"type":"Feature","geometry":{"type":"Point","coordinates":[-1.720614,48.155655]},"properties":{"id":"3502","name":"Pierre Texier","terminus":[],"limits":["07:53:00","07:53:00"],"lines":["0441,0"]}},{"type":"Feature","geometry":{"type":"Point","coordinates":[-1.704108,48.148918]},"properties":{"id":"3507","name":"Vizeule","terminus":[],"limits":["07:59:00","07:59:00"],"lines":["0441,0"]}},{"type":"Feature","geometry":{"type":"Point","coordinates":[-1.703613,48.148382]},"properties":{"id":"3508","name":"Vizeule","terminus":[],"limits":["12:54:00","17:25:00"],"lines":["0441,1"]}},{"type":"Feature","geometry":{"type":"Point","coordinates":[-1.720748,48.155723]},"properties":{"id":"3513","name":"Pierre Texier","terminus":[],"limits":["13:00:00","17:31:00"],"lines":["0441,1"]}},{"type":"Feature","geometry":{"type":"Point","coordinates":[-1.70884,48.143917]},"properties":{"id":"3517","name":"Boussardière","terminus":[],"limits":["12:51:00","17:22:00"],"lines":["0441,1"]}},{"type":"Feature","geometry":{"type":"Point","coordinates":[-1.708638,48.143967]},"properties":{"id":"3518","name":"Boussardière","terminus":[],"limits":["08:04:00","08:04:00"],"lines":["0441,0"]}},{"type":"Feature","geometry":{"type":"Point","coordinates":[-1.871463,48.153964]},"properties":{"id":"3701","name":"Etang de la Motte","terminus":["0443,0"],"limits":["07:40:00","17:51:00"],"lines":["0467,0","0467,1","0443,1","0443,0"]}},{"type":"Feature","geometry":{"type":"Point","coordinates":[-1.853834,48.151634]},"properties":{"id":"3702","name":"La Houdinais","terminus":[],"limits":["07:42:00","07:50:00"],"lines":["0467,0","0443,1"]}},{"type":"Feature","geometry":{"type":"Point","coordinates":[-1.853556,48.151757]},"properties":{"id":"3703","name":"La Houdinais","terminus":[],"limits":["12:11:00","17:49:00"],"lines":["0467,1","0443,0"]}},{"type":"Feature","geometry":{"type":"Point","coordinates":[-1.829806,48.15298]},"properties":{"id":"3705","name":"Saint-Gilles Centre","terminus":[],"limits":["07:58:00","07:58:00"],"lines":["0443,1"]}},{"type":"Feature","geometry":{"type":"Point","coordinates":[-1.825279,48.150683]},"properties":{"id":"3707","name":"Pont aux Moines","terminus":[],"limits":["07:49:00","07:59:00"],"lines":["0466,0","0443,1"]}},{"type":"Feature","geometry":{"type":"Point","coordinates":[-1.820678,48.152801]},"properties":{"id":"3708","name":"Vigne","terminus":[],"limits":["07:51:00","17:42:00"],"lines":["0466,0","0466,1","0443,1"]}},{"type":"Feature","geometry":{"type":"Point","coordinates":[-1.809229,48.152952]},"properties":{"id":"3709","name":"Fouaye","terminus":[],"limits":["08:02:00","08:02:00"],"lines":["0443,1"]}},{"type":"Feature","geometry":{"type":"Point","coordinates":[-1.810538,48.153626]},"properties":{"id":"3710","name":"Fouaye","terminus":[],"limits":["12:48:00","17:18:00"],"lines":["0443,0"]}},{"type":"Feature","geometry":{"type":"Point","coordinates":[-1.819988,48.154152]},"properties":{"id":"3711","name":"Vigne","terminus":[],"limits":["12:50:00","17:20:00"],"lines":["0443,0"]}},{"type":"Feature","geometry":{"type":"Point","coordinates":[-1.824791,48.150714]},"properties":{"id":"3712","name":"Pont aux Moines","terminus":[],"limits":["12:06:00","17:43:00"],"lines":["0466,1","0443,0"]}},{"type":"Feature","geometry":{"type":"Point","coordinates":[-1.829773,48.152522]},"properties":{"id":"3714","name":"Saint-Gilles Centre","terminus":[],"limits":["12:53:00","17:23:00"],"lines":["0443,0"]}},{"type":"Feature","geometry":{"type":"Point","coordinates":[-1.834034,48.153745]},"properties":{"id":"3715","name":"Clos des Cerisiers","terminus":[],"limits":["07:55:00","07:55:00"],"lines":["0443,1"]}},{"type":"Feature","geometry":{"type":"Point","coordinates":[-1.830394,48.150683]},"properties":{"id":"3716","name":"Résidence Janais","terminus":[],"limits":["07:54:00","07:54:00"],"lines":["0466,0"]}},{"type":"Feature","geometry":{"type":"Point","coordinates":[-1.828761,48.141985]},"properties":{"id":"3718","name":"Saint-Hubert","terminus":[],"limits":["07:56:00","07:56:00"],"lines":["0466,0"]}},{"type":"Feature","geometry":{"type":"Point","coordinates":[-1.868718,48.137696]},"properties":{"id":"3719","name":"Pierre Blanche","terminus":[],"limits":["07:46:00","07:46:00"],"lines":["0467,0"]}},{"type":"Feature","geometry":{"type":"Point","coordinates":[-1.86805,48.138174]},"properties":{"id":"3721","name":"Pierre Blanche","terminus":[],"limits":["12:07:00","17:45:00"],"lines":["0467,1"]}},{"type":"Feature","geometry":{"type":"Point","coordinates":[-1.834042,48.153843]},"properties":{"id":"3724","name":"Clos des Cerisiers","terminus":[],"limits":["12:55:00","17:25:00"],"lines":["0443,0"]}},{"type":"Feature","geometry":{"type":"Point","coordinates":[-1.828435,48.141892]},"properties":{"id":"3725","name":"Saint-Hubert","terminus":[],"limits":["12:03:00","17:40:00"],"lines":["0466,1"]}},{"type":"Feature","geometry":{"type":"Point","coordinates":[-1.872155,48.162194]},"properties":{"id":"3728","name":"Haute Fresnais","terminus":["0467,1"],"limits":["07:37:00","17:54:00"],"lines":["0467,0","0467,1"]}},{"type":"Feature","geometry":{"type":"Point","coordinates":[-1.830178,48.151004]},"properties":{"id":"3729","name":"Résidence Janais","terminus":[],"limits":["12:04:00","17:41:00"],"lines":["0466,1"]}},{"type":"Feature","geometry":{"type":"Point","coordinates":[-1.839024,48.14933]},"properties":{"id":"3732","name":"Ile des Bois","terminus":["0466,1"],"limits":["07:44:00","17:47:00"],"lines":["0466,0","0466,1"]}},{"type":"Feature","geometry":{"type":"Point","coordinates":[-1.868745,48.151371]},"properties":{"id":"3733","name":"Le Roheu","terminus":[],"limits":["07:41:00","07:47:00"],"lines":["0467,0","0443,1"]}},{"type":"Feature","geometry":{"type":"Point","coordinates":[-1.866602,48.152358]},"properties":{"id":"3734","name":"Ardriers","terminus":[],"limits":["12:12:00","17:50:00"],"lines":["0467,1","0443,0"]}},{"type":"Feature","geometry":{"type":"Point","coordinates":[-1.772466,48.12091]},"properties":{"id":"3754","name":"Haie de Terre","terminus":[],"limits":["08:01:00","08:01:00"],"lines":["0446,1"]}},{"type":"Feature","geometry":{"type":"Point","coordinates":[-1.765417,48.120211]},"properties":{"id":"3755","name":"Vallée","terminus":[],"limits":["08:02:00","08:03:00"],"lines":["0491,1","0446,1"]}},{"type":"Feature","geometry":{"type":"Point","coordinates":[-1.760926,48.119004]},"properties":{"id":"3756","name":"Lion d'Or","terminus":[],"limits":["08:03:00","08:04:00"],"lines":["0491,1","0446,1"]}},{"type":"Feature","geometry":{"type":"Point","coordinates":[-1.756833,48.11887]},"properties":{"id":"3757","name":"Vezin Centre","terminus":[],"limits":["08:07:00","08:07:00"],"lines":["0491,1"]}},{"type":"Feature","geometry":{"type":"Point","coordinates":[-1.743299,48.11845]},"properties":{"id":"3758","name":"Tertre","terminus":[],"limits":["08:10:00","08:10:00"],"lines":["0491,1"]}},{"type":"Feature","geometry":{"type":"Point","coordinates":[-1.731377,48.117611]},"properties":{"id":"3759","name":"Champ Noël","terminus":[],"limits":["08:11:00","08:11:00"],"lines":["0491,1"]}},{"type":"Feature","geometry":{"type":"Point","coordinates":[-1.731221,48.117765]},"properties":{"id":"3760","name":"Champ Noël","terminus":[],"limits":["13:19:00","17:05:00"],"lines":["0491,0"]}},{"type":"Feature","geometry":{"type":"Point","coordinates":[-1.743334,48.118572]},"properties":{"id":"3761","name":"Tertre","terminus":[],"limits":["13:20:00","17:06:00"],"lines":["0491,0"]}},{"type":"Feature","geometry":{"type":"Point","coordinates":[-1.755499,48.11923]},"properties":{"id":"3762","name":"Vezin Centre","terminus":[],"limits":["13:22:00","17:08:00"],"lines":["0491,0"]}},{"type":"Feature","geometry":{"type":"Point","coordinates":[-1.761273,48.119239]},"properties":{"id":"3763","name":"Lion d'Or","terminus":[],"limits":["12:53:00","17:23:00"],"lines":["0491,0","0446,0"]}},{"type":"Feature","geometry":{"type":"Point","coordinates":[-1.765585,48.120402]},"properties":{"id":"3764","name":"Vallée","terminus":["0491,0"],"limits":["12:54:00","17:24:00"],"lines":["0491,0","0446,0"]}},{"type":"Feature","geometry":{"type":"Point","coordinates":[-1.771757,48.121023]},"properties":{"id":"3765","name":"Haie de Terre","terminus":[],"limits":["12:56:00","17:26:00"],"lines":["0446,0"]}},{"type":"Feature","geometry":{"type":"Point","coordinates":[-1.755366,48.122951]},"properties":{"id":"3767","name":"Fresnot","terminus":[],"limits":["08:05:00","08:05:00"],"lines":["0446,1"]}},{"type":"Feature","geometry":{"type":"Point","coordinates":[-1.749601,48.119011]},"properties":{"id":"3770","name":"Champs Bleus","terminus":[],"limits":["08:09:00","08:09:00"],"lines":["0491,1"]}},{"type":"Feature","geometry":{"type":"Point","coordinates":[-1.749864,48.11916]},"properties":{"id":"3771","name":"Champs Bleus","terminus":[],"limits":["13:21:00","17:07:00"],"lines":["0491,0"]}},{"type":"Feature","geometry":{"type":"Point","coordinates":[-1.755514,48.122972]},"properties":{"id":"3773","name":"Fresnot","terminus":[],"limits":["12:51:00","17:21:00"],"lines":["0446,0"]}},{"type":"Feature","geometry":{"type":"Point","coordinates":[-1.613855,47.990142]},"properties":{"id":"3801","name":"Centre de Loisirs","terminus":[],"limits":["07:42:00","17:45:00"],"lines":["0404,0","0404,1"]}},{"type":"Feature","geometry":{"type":"Point","coordinates":[-1.614233,47.994926]},"properties":{"id":"3802","name":"Bourgbarré Mairie","terminus":[],"limits":["07:45:00","07:45:00"],"lines":["0404,0"]}},{"type":"Feature","geometry":{"type":"Point","coordinates":[-1.617451,47.996045]},"properties":{"id":"3803","name":"La Motte","terminus":[],"limits":["07:50:00","07:50:00"],"lines":["0451,0"]}},{"type":"Feature","geometry":{"type":"Point","coordinates":[-1.624234,47.995183]},"properties":{"id":"3804","name":"La Basse Erable","terminus":[],"limits":["07:52:00","07:52:00"],"lines":["0451,0"]}},{"type":"Feature","geometry":{"type":"Point","coordinates":[-1.631502,47.994576]},"properties":{"id":"3805","name":"Perelle","terminus":[],"limits":["07:53:00","07:53:00"],"lines":["0451,0"]}},{"type":"Feature","geometry":{"type":"Point","coordinates":[-1.631365,47.994399]},"properties":{"id":"3806","name":"Perelle","terminus":[],"limits":["12:54:00","17:24:00"],"lines":["0451,1"]}},{"type":"Feature","geometry":{"type":"Point","coordinates":[-1.623735,47.995094]},"properties":{"id":"3807","name":"La Basse Erable","terminus":[],"limits":["12:55:00","17:25:00"],"lines":["0451,1"]}},{"type":"Feature","geometry":{"type":"Point","coordinates":[-1.617465,47.995943]},"properties":{"id":"3808","name":"La Motte","terminus":[],"limits":["12:57:00","17:27:00"],"lines":["0451,1"]}},{"type":"Feature","geometry":{"type":"Point","coordinates":[-1.614138,47.994727]},"properties":{"id":"3809","name":"Bourgbarré Mairie","terminus":[],"limits":["13:13:00","17:43:00"],"lines":["0404,1"]}},{"type":"Feature","geometry":{"type":"Point","coordinates":[-1.632394,47.960038]},"properties":{"id":"3810","name":"Moc Souris","terminus":["0405,0"],"limits":["07:41:00","17:44:00"],"lines":["0405,0","0405,1","0453,0"]}},{"type":"Feature","geometry":{"type":"Point","coordinates":[-1.637267,47.959332]},"properties":{"id":"3811","name":"Sept Fours","terminus":[],"limits":["07:40:00","17:42:00"],"lines":["0405,0","0405,1","0453,0"]}},{"type":"Feature","geometry":{"type":"Point","coordinates":[-1.639253,47.968932]},"properties":{"id":"3818","name":"Abords Lauriais","terminus":[],"limits":["07:43:00","07:43:00"],"lines":["0405,1"]}},{"type":"Feature","geometry":{"type":"Point","coordinates":[-1.639334,47.968734]},"properties":{"id":"3819","name":"Abords Lauriais","terminus":[],"limits":["13:08:00","17:40:00"],"lines":["0405,0","0453,0"]}},{"type":"Feature","geometry":{"type":"Point","coordinates":[-1.63008,47.999217]},"properties":{"id":"3820","name":"Château Logé","terminus":[],"limits":["13:02:00","17:37:00"],"lines":["0407,1"]}},{"type":"Feature","geometry":{"type":"Point","coordinates":[-1.630008,47.999264]},"properties":{"id":"3821","name":"Château Logé","terminus":[],"limits":["07:55:00","07:55:00"],"lines":["0407,0"]}},{"type":"Feature","geometry":{"type":"Point","coordinates":[-1.623505,47.990165]},"properties":{"id":"3822","name":"La Fretais","terminus":[],"limits":["07:37:00","07:37:00"],"lines":["0404,0"]}},{"type":"Feature","geometry":{"type":"Point","coordinates":[-1.623642,47.990177]},"properties":{"id":"3823","name":"La Fretais","terminus":["0404,1","0451,1"],"limits":["13:11:00","17:48:00"],"lines":["0404,1","0451,1"]}},{"type":"Feature","geometry":{"type":"Point","coordinates":[-1.608628,48.001407]},"properties":{"id":"3824","name":"Le Rocher","terminus":[],"limits":["07:45:00","07:48:00"],"lines":["0407,0","0451,0"]}},{"type":"Feature","geometry":{"type":"Point","coordinates":[-1.608574,48.001653]},"properties":{"id":"3825","name":"Le Rocher","terminus":[],"limits":["13:02:00","17:44:00"],"lines":["0407,1","0451,1"]}},{"type":"Feature","geometry":{"type":"Point","coordinates":[-1.602784,48.004143]},"properties":{"id":"3826","name":"Les Cruaux","terminus":[],"limits":["07:43:00","07:47:00"],"lines":["0407,0","0451,0"]}},{"type":"Feature","geometry":{"type":"Point","coordinates":[-1.60282,48.004037]},"properties":{"id":"3827","name":"Les Cruaux","terminus":["0407,1"],"limits":["13:04:00","17:45:00"],"lines":["0407,1","0451,1"]}},{"type":"Feature","geometry":{"type":"Point","coordinates":[-1.613143,47.997881]},"properties":{"id":"3828","name":"Pont du Gué","terminus":[],"limits":["07:47:00","07:49:00"],"lines":["0407,0","0451,0"]}},{"type":"Feature","geometry":{"type":"Point","coordinates":[-1.612934,47.997475]},"properties":{"id":"3830","name":"Pont du Gué","terminus":[],"limits":["13:00:00","17:43:00"],"lines":["0407,1","0451,1"]}},{"type":"Feature","geometry":{"type":"Point","coordinates":[-1.621934,47.99661]},"properties":{"id":"3836","name":"Jardin du Soleil","terminus":[],"limits":["07:54:00","07:54:00"],"lines":["0407,0"]}},{"type":"Feature","geometry":{"type":"Point","coordinates":[-1.622006,47.996445]},"properties":{"id":"3837","name":"Jardin du Soleil","terminus":[],"limits":["13:03:00","17:38:00"],"lines":["0407,1"]}},{"type":"Feature","geometry":{"type":"Point","coordinates":[-1.849829,48.071956]},"properties":{"id":"3852","name":"Mordelles Eglise","terminus":[],"limits":["07:45:00","07:45:00"],"lines":["0408,1"]}},{"type":"Feature","geometry":{"type":"Point","coordinates":[-1.846282,48.073718]},"properties":{"id":"3853","name":"Mordelles Mairie","terminus":[],"limits":["07:46:00","07:46:00"],"lines":["0408,1"]}},{"type":"Feature","geometry":{"type":"Point","coordinates":[-1.842153,48.075808]},"properties":{"id":"3854","name":"Mordelles Lilas","terminus":[],"limits":["07:47:00","17:15:00"],"lines":["0408,1","0433,1"]}},{"type":"Feature","geometry":{"type":"Point","coordinates":[-1.837422,48.077668]},"properties":{"id":"3855","name":"Gretay","terminus":[],"limits":["07:49:00","07:49:00"],"lines":["0408,1"]}},{"type":"Feature","geometry":{"type":"Point","coordinates":[-1.837377,48.077836]},"properties":{"id":"3862","name":"Gretay","terminus":[],"limits":["13:21:00","17:46:00"],"lines":["0408,0"]}},{"type":"Feature","geometry":{"type":"Point","coordinates":[-1.842827,48.075604]},"properties":{"id":"3863","name":"Mordelles Lilas","terminus":[],"limits":["08:10:00","17:48:00"],"lines":["0408,0","0433,0"]}},{"type":"Feature","geometry":{"type":"Point","coordinates":[-1.846884,48.073558]},"properties":{"id":"3864","name":"Mordelles Mairie","terminus":[],"limits":["13:24:00","17:49:00"],"lines":["0408,0"]}},{"type":"Feature","geometry":{"type":"Point","coordinates":[-1.85024,48.071883]},"properties":{"id":"3865","name":"Mordelles Eglise","terminus":[],"limits":["13:25:00","17:50:00"],"lines":["0408,0"]}},{"type":"Feature","geometry":{"type":"Point","coordinates":[-1.85372,48.073924]},"properties":{"id":"3869","name":"Mordelles Pâtis","terminus":["0408,0"],"limits":["07:42:00","17:53:00"],"lines":["0408,1","0408,0"]}},{"type":"Feature","geometry":{"type":"Point","coordinates":[-1.865968,48.079977]},"properties":{"id":"3877","name":"La Haute Barre","terminus":[],"limits":["08:02:00","17:28:00"],"lines":["0436,0","0436,1"]}},{"type":"Feature","geometry":{"type":"Point","coordinates":[-1.854402,48.086226]},"properties":{"id":"3878","name":"Ville Noublée","terminus":[],"limits":["07:58:00","07:58:00"],"lines":["0436,0"]}},{"type":"Feature","geometry":{"type":"Point","coordinates":[-1.854118,48.086488]},"properties":{"id":"3879","name":"Ville Noublée","terminus":[],"limits":["13:00:00","17:31:00"],"lines":["0436,1"]}},{"type":"Feature","geometry":{"type":"Point","coordinates":[-1.841111,48.071465]},"properties":{"id":"3880","name":"Morvan Lebesque","terminus":["0436,0"],"limits":["08:08:00","17:15:00"],"lines":["0435,1","0435,0","0436,0","0436,1"]}},{"type":"Feature","geometry":{"type":"Point","coordinates":[-1.851712,48.073566]},"properties":{"id":"3881","name":"Collège St-Yves","terminus":["0432,0","0433,0","0435,1","0437,0"],"limits":["08:08:00","17:20:00"],"lines":["0432,0","0432,1","0433,0","0433,1","0435,1","0435,0","0436,0","0436,1","0437,0","0437,1"]}},{"type":"Feature","geometry":{"type":"Point","coordinates":[-1.694531,48.019688]},"properties":{"id":"3920","name":"Le Louvrel","terminus":[],"limits":["12:54:00","17:29:00"],"lines":["0407,1"]}},{"type":"Feature","geometry":{"type":"Point","coordinates":[-1.694561,48.019778]},"properties":{"id":"3921","name":"Le Louvrel","terminus":[],"limits":["08:02:00","08:02:00"],"lines":["0407,0"]}},{"type":"Feature","geometry":{"type":"Point","coordinates":[-1.714197,48.001805]},"properties":{"id":"3926","name":"Touche Audienne","terminus":[],"limits":["12:50:00","17:20:00"],"lines":["0455,0"]}},{"type":"Feature","geometry":{"type":"Point","coordinates":[-1.711817,48.002274]},"properties":{"id":"3927","name":"Touche Audienne","terminus":[],"limits":["07:48:00","17:32:00"],"lines":["0455,1","0410,1","0410,0"]}},{"type":"Feature","geometry":{"type":"Point","coordinates":[-1.726466,48.17714]},"properties":{"id":"4051","name":"Bersandières","terminus":[],"limits":["07:46:00","17:36:00"],"lines":["0441,0","0441,1"]}},{"type":"Feature","geometry":{"type":"Point","coordinates":[-1.723409,48.172842]},"properties":{"id":"4064","name":"Izé","terminus":[],"limits":["07:42:00","17:38:00"],"lines":["0441,0","0441,1"]}},{"type":"Feature","geometry":{"type":"Point","coordinates":[-1.742983,48.168594]},"properties":{"id":"4066","name":"Quatre Vents","terminus":[],"limits":["07:51:00","07:51:00"],"lines":["0441,0"]}},{"type":"Feature","geometry":{"type":"Point","coordinates":[-1.74251,48.168976]},"properties":{"id":"4067","name":"Quatre Vents","terminus":[],"limits":["13:02:00","17:33:00"],"lines":["0441,1"]}},{"type":"Feature","geometry":{"type":"Point","coordinates":[-1.72454,48.174763]},"properties":{"id":"4068","name":"Chêne aux dames","terminus":["0441,1"],"limits":["07:44:00","17:40:00"],"lines":["0441,0","0441,1"]}},{"type":"Feature","geometry":{"type":"Point","coordinates":[-1.752972,48.173756]},"properties":{"id":"4071","name":"Forge Mallet","terminus":[],"limits":["12:47:00","17:17:00"],"lines":["0445,1"]}},{"type":"Feature","geometry":{"type":"Point","coordinates":[-1.753095,48.173452]},"properties":{"id":"4072","name":"Forge Mallet","terminus":[],"limits":["08:06:00","08:06:00"],"lines":["0445,0"]}},{"type":"Feature","geometry":{"type":"Point","coordinates":[-1.860726,48.123011]},"properties":{"id":"4252","name":"Rochers","terminus":[],"limits":["07:59:00","07:59:00"],"lines":["0437,0"]}},{"type":"Feature","geometry":{"type":"Point","coordinates":[-1.846158,48.121939]},"properties":{"id":"4253","name":"Piardière","terminus":[],"limits":["08:00:00","08:00:00"],"lines":["0437,0"]}},{"type":"Feature","geometry":{"type":"Point","coordinates":[-1.837645,48.121285]},"properties":{"id":"4254","name":"Grippière","terminus":[],"limits":["08:01:00","08:01:00"],"lines":["0437,0"]}},{"type":"Feature","geometry":{"type":"Point","coordinates":[-1.83765,48.12143]},"properties":{"id":"4255","name":"Grippière","terminus":[],"limits":["12:54:00","17:19:00"],"lines":["0437,1"]}},{"type":"Feature","geometry":{"type":"Point","coordinates":[-1.846175,48.122037]},"properties":{"id":"4256","name":"Piardière","terminus":[],"limits":["12:55:00","17:20:00"],"lines":["0437,1"]}},{"type":"Feature","geometry":{"type":"Point","coordinates":[-1.860835,48.123122]},"properties":{"id":"4257","name":"Rochers","terminus":[],"limits":["12:56:00","17:21:00"],"lines":["0437,1"]}},{"type":"Feature","geometry":{"type":"Point","coordinates":[-1.854656,48.132823]},"properties":{"id":"4259","name":"Cherterie","terminus":[],"limits":["12:06:00","17:44:00"],"lines":["0467,1"]}},{"type":"Feature","geometry":{"type":"Point","coordinates":[-1.845055,48.131389]},"properties":{"id":"4260","name":"Pont Harel","terminus":[],"limits":["07:47:00","07:51:00"],"lines":["0467,0","0432,0"]}},{"type":"Feature","geometry":{"type":"Point","coordinates":[-1.855567,48.13295]},"properties":{"id":"4262","name":"Cherterie","terminus":[],"limits":["07:47:00","07:47:00"],"lines":["0467,0"]}},{"type":"Feature","geometry":{"type":"Point","coordinates":[-1.844753,48.131499]},"properties":{"id":"4263","name":"Pont Harel","terminus":["0432,1"],"limits":["12:04:00","17:42:00"],"lines":["0467,1","0432,1"]}},{"type":"Feature","geometry":{"type":"Point","coordinates":[-1.865899,48.123069]},"properties":{"id":"4264","name":"Place de la Mairie","terminus":[],"limits":["07:57:00","07:57:00"],"lines":["0437,0"]}},{"type":"Feature","geometry":{"type":"Point","coordinates":[-1.868366,48.122595]},"properties":{"id":"4267","name":"Ville aux Archers","terminus":[],"limits":["07:55:00","07:55:00"],"lines":["0437,0"]}},{"type":"Feature","geometry":{"type":"Point","coordinates":[-1.866053,48.123099]},"properties":{"id":"4269","name":"Place de la Mairie","terminus":[],"limits":["12:58:00","17:23:00"],"lines":["0437,1"]}},{"type":"Feature","geometry":{"type":"Point","coordinates":[-1.868554,48.122657]},"properties":{"id":"4270","name":"Ville aux Archers","terminus":["0437,1"],"limits":["13:00:00","17:25:00"],"lines":["0437,1"]}},{"type":"Feature","geometry":{"type":"Point","coordinates":[-1.849264,48.131376]},"properties":{"id":"4271","name":"Champ Rouget","terminus":[],"limits":["07:49:00","17:43:00"],"lines":["0467,0","0467,1"]}},{"type":"Feature","geometry":{"type":"Point","coordinates":[-1.822672,48.118827]},"properties":{"id":"4302","name":"ESAT La Hautière","terminus":[],"limits":["08:02:00","08:05:00"],"lines":["0467,0","0432,0"]}},{"type":"Feature","geometry":{"type":"Point","coordinates":[-1.811557,48.124609]},"properties":{"id":"4305","name":"Village","terminus":[],"limits":["07:56:00","17:21:00"],"lines":["0432,0","0432,1"]}},{"type":"Feature","geometry":{"type":"Point","coordinates":[-1.806172,48.123163]},"properties":{"id":"4306","name":"Clairefontaine","terminus":[],"limits":["07:59:00","17:23:00"],"lines":["0432,0","0432,1"]}},{"type":"Feature","geometry":{"type":"Point","coordinates":[-1.813144,48.127487]},"properties":{"id":"4312","name":"Lemordant","terminus":[],"limits":["08:00:00","17:36:00"],"lines":["0467,0","0467,1","0466,0","0466,1","0432,0","0432,1"]}},{"type":"Feature","geometry":{"type":"Point","coordinates":[-1.806527,48.126133]},"properties":{"id":"4318","name":"Rue de Pacé","terminus":[],"limits":["07:58:00","17:35:00"],"lines":["0467,0","0467,1","0466,0","0466,1"]}},{"type":"Feature","geometry":{"type":"Point","coordinates":[-1.822429,48.118994]},"properties":{"id":"4319","name":"ESAT La Hautière","terminus":[],"limits":["11:55:00","17:33:00"],"lines":["0467,1","0432,1"]}},{"type":"Feature","geometry":{"type":"Point","coordinates":[-1.815491,48.125447]},"properties":{"id":"4322","name":"L'Hermitage Centre","terminus":[],"limits":["07:53:00","17:19:00"],"lines":["0432,0","0432,1"]}},{"type":"Feature","geometry":{"type":"Point","coordinates":[-1.83374,48.130526]},"properties":{"id":"4323","name":"Verdais","terminus":[],"limits":["07:55:00","17:41:00"],"lines":["0467,0","0467,1"]}},{"type":"Feature","geometry":{"type":"Point","coordinates":[-1.654585,48.017654]},"properties":{"id":"4353","name":"Paul Féval","terminus":[],"limits":["12:58:00","17:33:00"],"lines":["0407,1"]}},{"type":"Feature","geometry":{"type":"Point","coordinates":[-1.654401,48.017653]},"properties":{"id":"4354","name":"Paul Féval","terminus":[],"limits":["07:59:00","07:59:00"],"lines":["0407,0"]}},{"type":"Feature","geometry":{"type":"Point","coordinates":[-1.649365,48.017732]},"properties":{"id":"4358","name":"Croix Faucheux","terminus":[],"limits":["07:52:00","17:41:00"],"lines":["0402,1","0402,0"]}},{"type":"Feature","geometry":{"type":"Point","coordinates":[-1.653502,48.021537]},"properties":{"id":"4359","name":"Leuzières","terminus":[],"limits":["07:35:00","07:54:00"],"lines":["0402,0","0482,0"]}},{"type":"Feature","geometry":{"type":"Point","coordinates":[-1.653716,48.021547]},"properties":{"id":"4360","name":"Leuzières","terminus":["0482,1"],"limits":["12:50:00","17:39:00"],"lines":["0402,1","0482,1"]}},{"type":"Feature","geometry":{"type":"Point","coordinates":[-1.651517,48.016196]},"properties":{"id":"4362","name":"Alexandre Gilois","terminus":[],"limits":["12:59:00","17:34:00"],"lines":["0407,1"]}},{"type":"Feature","geometry":{"type":"Point","coordinates":[-1.651341,48.016323]},"properties":{"id":"4363","name":"Alexandre Gilois","terminus":[],"limits":["07:58:00","07:58:00"],"lines":["0407,0"]}},{"type":"Feature","geometry":{"type":"Point","coordinates":[-1.63193,48.020602]},"properties":{"id":"4364","name":"Douazel","terminus":[],"limits":["07:45:00","07:50:00"],"lines":["0402,0","0454,0"]}},{"type":"Feature","geometry":{"type":"Point","coordinates":[-1.659162,48.021687]},"properties":{"id":"4365","name":"Champ du Puit","terminus":[],"limits":["07:56:00","07:58:00"],"lines":["0402,0","0454,0"]}},{"type":"Feature","geometry":{"type":"Point","coordinates":[-1.659021,48.021627]},"properties":{"id":"4366","name":"Champ du Puit","terminus":[],"limits":["12:49:00","17:35:00"],"lines":["0402,1","0454,1"]}},{"type":"Feature","geometry":{"type":"Point","coordinates":[-1.632019,48.020425]},"properties":{"id":"4367","name":"Douazel","terminus":["0402,1","0454,1"],"limits":["12:56:00","17:47:00"],"lines":["0402,1","0454,1"]}},{"type":"Feature","geometry":{"type":"Point","coordinates":[-1.659224,48.023717]},"properties":{"id":"4372","name":"Haie à la Dame","terminus":[],"limits":["12:50:00","17:21:00"],"lines":["0454,1"]}},{"type":"Feature","geometry":{"type":"Point","coordinates":[-1.646869,48.020286]},"properties":{"id":"4374","name":"Pont de l'Ise","terminus":[],"limits":["12:54:00","17:45:00"],"lines":["0402,1","0454,1"]}},{"type":"Feature","geometry":{"type":"Point","coordinates":[-1.647162,48.020203]},"properties":{"id":"4375","name":"Pont de l'Ise","terminus":[],"limits":["07:49:00","07:53:00"],"lines":["0402,0","0454,0"]}},{"type":"Feature","geometry":{"type":"Point","coordinates":[-1.659173,48.023896]},"properties":{"id":"4378","name":"Haie à la Dame","terminus":[],"limits":["07:56:00","07:56:00"],"lines":["0454,0"]}},{"type":"Feature","geometry":{"type":"Point","coordinates":[-1.660456,48.017946]},"properties":{"id":"4379","name":"Collège Saint-Paul","terminus":[],"limits":["08:00:00","17:33:00"],"lines":["0405,1","0406,1","0406,0"]}},{"type":"Feature","geometry":{"type":"Point","coordinates":[-1.661279,48.018026]},"properties":{"id":"4381","name":"Collège Saint-Paul","terminus":["0452,0"],"limits":["08:01:00","17:15:00"],"lines":["0454,0","0454,1","0453,0","0452,0","0452,1","0451,0","0451,1"]}},{"type":"Feature","geometry":{"type":"Point","coordinates":[-1.932427,48.069918]},"properties":{"id":"4401","name":"Le Verger Eglise","terminus":[],"limits":["07:55:00","07:55:00"],"lines":["0435,1"]}},{"type":"Feature","geometry":{"type":"Point","coordinates":[-1.928997,48.070241]},"properties":{"id":"4402","name":"Bouvrais","terminus":[],"limits":["07:57:00","07:57:00"],"lines":["0435,1"]}},{"type":"Feature","geometry":{"type":"Point","coordinates":[-1.943388,48.069144]},"properties":{"id":"4404","name":"Monbusson","terminus":[],"limits":["07:49:00","07:49:00"],"lines":["0435,1"]}},{"type":"Feature","geometry":{"type":"Point","coordinates":[-1.946416,48.066916]},"properties":{"id":"4405","name":"Breil","terminus":[],"limits":["07:48:00","07:48:00"],"lines":["0435,1"]}},{"type":"Feature","geometry":{"type":"Point","coordinates":[-1.946498,48.066997]},"properties":{"id":"4406","name":"Breil","terminus":["0435,0"],"limits":["13:05:00","17:34:00"],"lines":["0435,0"]}},{"type":"Feature","geometry":{"type":"Point","coordinates":[-1.943188,48.069416]},"properties":{"id":"4407","name":"Monbusson","terminus":[],"limits":["13:04:00","17:33:00"],"lines":["0435,0"]}},{"type":"Feature","geometry":{"type":"Point","coordinates":[-1.93229,48.07003]},"properties":{"id":"4408","name":"Le Verger Eglise","terminus":[],"limits":["13:02:00","17:32:00"],"lines":["0435,0"]}},{"type":"Feature","geometry":{"type":"Point","coordinates":[-1.930041,48.062953]},"properties":{"id":"4410","name":"La Lande Basse","terminus":[],"limits":["07:54:00","17:30:00"],"lines":["0435,0","0435,1"]}},{"type":"Feature","geometry":{"type":"Point","coordinates":[-1.788723,48.220986]},"properties":{"id":"4502","name":"Gévezé Mairie","terminus":[],"limits":["07:41:00","07:41:00"],"lines":["0475,0"]}},{"type":"Feature","geometry":{"type":"Point","coordinates":[-1.784055,48.218704]},"properties":{"id":"4503","name":"Flume","terminus":[],"limits":["12:39:00","17:56:00"],"lines":["0475,1"]}},{"type":"Feature","geometry":{"type":"Point","coordinates":[-1.78315,48.21819]},"properties":{"id":"4504","name":"Flume","terminus":[],"limits":["07:44:00","07:44:00"],"lines":["0475,0"]}},{"type":"Feature","geometry":{"type":"Point","coordinates":[-1.7882,48.221027]},"properties":{"id":"4505","name":"Gévezé Mairie","terminus":[],"limits":["12:41:00","17:59:00"],"lines":["0475,1"]}},{"type":"Feature","geometry":{"type":"Point","coordinates":[-1.79112,48.217537]},"properties":{"id":"4506","name":"Beauvais","terminus":[],"limits":["07:52:00","07:52:00"],"lines":["0445,0","0444,0"]}},{"type":"Feature","geometry":{"type":"Point","coordinates":[-1.802327,48.221783]},"properties":{"id":"4507","name":"Cheval Blanc","terminus":[],"limits":["07:34:00","07:45:00"],"lines":["0475,0","0444,0"]}},{"type":"Feature","geometry":{"type":"Point","coordinates":[-1.800785,48.224482]},"properties":{"id":"4508","name":"Coualeuc","terminus":[],"limits":["07:36:00","07:46:00"],"lines":["0475,0","0444,0"]}},{"type":"Feature","geometry":{"type":"Point","coordinates":[-1.800449,48.224645]},"properties":{"id":"4509","name":"Coualeuc","terminus":[],"limits":["12:44:00","18:02:00"],"lines":["0475,1","0444,1"]}},{"type":"Feature","geometry":{"type":"Point","coordinates":[-1.79363,48.223615]},"properties":{"id":"4510","name":"Prés Verts","terminus":[],"limits":["07:38:00","07:49:00"],"lines":["0475,0","0444,0"]}},{"type":"Feature","geometry":{"type":"Point","coordinates":[-1.793771,48.223978]},"properties":{"id":"4511","name":"Prés Verts","terminus":[],"limits":["12:43:00","18:01:00"],"lines":["0475,1","0444,1"]}},{"type":"Feature","geometry":{"type":"Point","coordinates":[-1.791037,48.217426]},"properties":{"id":"4513","name":"Beauvais","terminus":[],"limits":["12:58:00","17:28:00"],"lines":["0445,1","0444,1"]}},{"type":"Feature","geometry":{"type":"Point","coordinates":[-1.788513,48.187732]},"properties":{"id":"4514","name":"Brosse Allée","terminus":[],"limits":["08:02:00","08:02:00"],"lines":["0445,0"]}},{"type":"Feature","geometry":{"type":"Point","coordinates":[-1.788333,48.187914]},"properties":{"id":"4515","name":"Brosse Allée","terminus":[],"limits":["12:52:00","17:21:00"],"lines":["0445,1"]}},{"type":"Feature","geometry":{"type":"Point","coordinates":[-1.799128,48.211405]},"properties":{"id":"4518","name":"Chêne Hamon","terminus":[],"limits":["07:54:00","07:54:00"],"lines":["0444,0"]}},{"type":"Feature","geometry":{"type":"Point","coordinates":[-1.79911,48.211293]},"properties":{"id":"4519","name":"Chêne Hamon","terminus":[],"limits":["12:54:00","17:24:00"],"lines":["0444,1"]}},{"type":"Feature","geometry":{"type":"Point","coordinates":[-1.792129,48.239288]},"properties":{"id":"4520","name":"Huchetais","terminus":[],"limits":["07:45:00","07:45:00"],"lines":["0445,0"]}},{"type":"Feature","geometry":{"type":"Point","coordinates":[-1.792114,48.239339]},"properties":{"id":"4521","name":"Huchetais","terminus":["0445,1"],"limits":["13:09:00","17:37:00"],"lines":["0445,1"]}},{"type":"Feature","geometry":{"type":"Point","coordinates":[-1.787785,48.219975]},"properties":{"id":"4524","name":"Vieux Moulin","terminus":[],"limits":["07:51:00","07:51:00"],"lines":["0445,0"]}},{"type":"Feature","geometry":{"type":"Point","coordinates":[-1.787511,48.219998]},"properties":{"id":"4525","name":"Vieux Moulin","terminus":[],"limits":["13:00:00","17:29:00"],"lines":["0445,1"]}},{"type":"Feature","geometry":{"type":"Point","coordinates":[-1.787716,48.23377]},"properties":{"id":"4529","name":"Lande de Villé","terminus":[],"limits":["13:07:00","17:35:00"],"lines":["0445,1"]}},{"type":"Feature","geometry":{"type":"Point","coordinates":[-1.787786,48.23354]},"properties":{"id":"4530","name":"Lande de Villé","terminus":[],"limits":["07:47:00","07:47:00"],"lines":["0445,0"]}},{"type":"Feature","geometry":{"type":"Point","coordinates":[-1.802487,48.221767]},"properties":{"id":"4531","name":"Cheval Blanc","terminus":["0444,1"],"limits":["12:45:00","18:03:00"],"lines":["0475,1","0444,1"]}},{"type":"Feature","geometry":{"type":"Point","coordinates":[-1.784527,48.222643]},"properties":{"id":"4532","name":"Gévezé Clairville","terminus":[],"limits":["07:48:00","07:48:00"],"lines":["0445,0"]}},{"type":"Feature","geometry":{"type":"Point","coordinates":[-1.784546,48.222453]},"properties":{"id":"4533","name":"Gévezé Clairville","terminus":[],"limits":["13:04:00","17:32:00"],"lines":["0445,1"]}},{"type":"Feature","geometry":{"type":"Point","coordinates":[-1.872646,48.105043]},"properties":{"id":"4652","name":"Chêne Vert","terminus":[],"limits":["07:50:00","17:37:00"],"lines":["0436,0","0436,1"]}},{"type":"Feature","geometry":{"type":"Point","coordinates":[-1.869545,48.103336]},"properties":{"id":"4653","name":"Saint-Melaine","terminus":[],"limits":["07:53:00","07:53:00"],"lines":["0436,0"]}},{"type":"Feature","geometry":{"type":"Point","coordinates":[-1.869393,48.103469]},"properties":{"id":"4654","name":"Saint-Melaine","terminus":[],"limits":["13:04:00","17:35:00"],"lines":["0436,1"]}},{"type":"Feature","geometry":{"type":"Point","coordinates":[-1.873182,48.107159]},"properties":{"id":"4655","name":"Saint-Roch","terminus":["0436,1"],"limits":["07:46:00","17:45:00"],"lines":["0436,0","0436,1"]}},{"type":"Feature","geometry":{"type":"Point","coordinates":[-1.894897,48.102369]},"properties":{"id":"4657","name":"Belle Arrivée","terminus":[],"limits":["07:37:00","17:40:00"],"lines":["0436,0","0436,1"]}},{"type":"Feature","geometry":{"type":"Point","coordinates":[-1.903277,48.114373]},"properties":{"id":"4660","name":"Bintin","terminus":[],"limits":["07:41:00","17:42:00"],"lines":["0436,0","0436,1"]}},{"type":"Feature","geometry":{"type":"Point","coordinates":[-1.894886,48.107023]},"properties":{"id":"4662","name":"Chêne Lierru","terminus":[],"limits":["07:39:00","17:41:00"],"lines":["0436,0","0436,1"]}},{"type":"Feature","geometry":{"type":"Point","coordinates":[-1.881246,48.103918]},"properties":{"id":"4663","name":"Pilais Barbais","terminus":[],"limits":["07:34:00","17:38:00"],"lines":["0436,0","0436,1"]}},{"type":"Feature","geometry":{"type":"Point","coordinates":[-1.886727,48.096693]},"properties":{"id":"4666","name":"Richeudais","terminus":[],"limits":["07:36:00","17:39:00"],"lines":["0436,0","0436,1"]}},{"type":"Feature","geometry":{"type":"Point","coordinates":[-1.892139,48.11265]},"properties":{"id":"4668","name":"Les Bordes","terminus":[],"limits":["07:43:00","17:43:00"],"lines":["0436,0","0436,1"]}},{"type":"Feature","geometry":{"type":"Point","coordinates":[-1.713688,47.978438]},"properties":{"id":"4700","name":"Point du Jour","terminus":[],"limits":["07:50:00","17:35:00"],"lines":["0456,1","0411,0","0080,1"]}},{"type":"Feature","geometry":{"type":"Point","coordinates":[-1.712988,47.978606]},"properties":{"id":"4701","name":"Point du Jour","terminus":[],"limits":["07:50:00","17:23:00"],"lines":["0456,0","0411,1"]}},{"type":"Feature","geometry":{"type":"Point","coordinates":[-1.717111,47.975433]},"properties":{"id":"4702","name":"Orée du Bois","terminus":[],"limits":["07:49:00","17:37:00"],"lines":["0409,0","0080,1"]}},{"type":"Feature","geometry":{"type":"Point","coordinates":[-1.717175,47.975507]},"properties":{"id":"4703","name":"Orée du Bois","terminus":[],"limits":["07:49:00","07:49:00"],"lines":["0409,1"]}},{"type":"Feature","geometry":{"type":"Point","coordinates":[-1.72041,47.978117]},"properties":{"id":"4704","name":"Laillé Eglise","terminus":[],"limits":["07:47:00","17:32:00"],"lines":["0412,0","0080,1"]}},{"type":"Feature","geometry":{"type":"Point","coordinates":[-1.719683,47.977983]},"properties":{"id":"4705","name":"Laillé Eglise","terminus":[],"limits":["07:46:00","07:46:00"],"lines":["0412,1"]}},{"type":"Feature","geometry":{"type":"Point","coordinates":[-1.724314,47.97919]},"properties":{"id":"4706","name":"Châtaigneraie","terminus":[],"limits":["07:40:00","17:41:00"],"lines":["0455,1","0455,0","0410,1","0410,0","0080,1"]}},{"type":"Feature","geometry":{"type":"Point","coordinates":[-1.730909,47.980092]},"properties":{"id":"4708","name":"Gingouillère","terminus":[],"limits":["07:38:00","17:39:00"],"lines":["0410,1","0410,0","0080,1"]}},{"type":"Feature","geometry":{"type":"Point","coordinates":[-1.693073,47.979926]},"properties":{"id":"4709","name":"Bout de Lande","terminus":[],"limits":["07:42:00","07:42:00"],"lines":["0411,1"]}},{"type":"Feature","geometry":{"type":"Point","coordinates":[-1.693264,47.979836]},"properties":{"id":"4710","name":"Bout de Lande","terminus":[],"limits":["13:11:00","17:41:00"],"lines":["0411,0"]}},{"type":"Feature","geometry":{"type":"Point","coordinates":[-1.691403,47.975394]},"properties":{"id":"4711","name":"Estuaires","terminus":[],"limits":["07:40:00","07:40:00"],"lines":["0411,1"]}},{"type":"Feature","geometry":{"type":"Point","coordinates":[-1.69136,47.974816]},"properties":{"id":"4712","name":"Estuaires","terminus":[],"limits":["13:13:00","17:43:00"],"lines":["0411,0"]}},{"type":"Feature","geometry":{"type":"Point","coordinates":[-1.711905,47.995593]},"properties":{"id":"4714","name":"Laillé Bellevue","terminus":[],"limits":["07:50:00","17:34:00"],"lines":["0410,1","0410,0"]}},{"type":"Feature","geometry":{"type":"Point","coordinates":[-1.696275,47.94162]},"properties":{"id":"4715","name":"Bossardière","terminus":["0406,0","0453,0"],"limits":["13:22:00","18:01:00"],"lines":["0406,0","0453,0"]}},{"type":"Feature","geometry":{"type":"Point","coordinates":[-1.696252,47.94146]},"properties":{"id":"4716","name":"Bossardière","terminus":[],"limits":["07:38:00","07:38:00"],"lines":["0406,1"]}},{"type":"Feature","geometry":{"type":"Point","coordinates":[-1.701021,47.95562]},"properties":{"id":"4717","name":"Boulais Pochetière","terminus":[],"limits":["07:42:00","07:49:00"],"lines":["0456,1","0409,1"]}},{"type":"Feature","geometry":{"type":"Point","coordinates":[-1.701099,47.955557]},"properties":{"id":"4718","name":"Boulais Pochetière","terminus":[],"limits":["12:59:00","17:43:00"],"lines":["0456,0","0409,0"]}},{"type":"Feature","geometry":{"type":"Point","coordinates":[-1.697982,47.974425]},"properties":{"id":"4721","name":"Château d'Eau","terminus":[],"limits":["07:38:00","07:53:00"],"lines":["0411,1","0080,1"]}},{"type":"Feature","geometry":{"type":"Point","coordinates":[-1.698507,47.974626]},"properties":{"id":"4722","name":"Château d'Eau","terminus":["0411,0"],"limits":["13:15:00","17:45:00"],"lines":["0411,0"]}},{"type":"Feature","geometry":{"type":"Point","coordinates":[-1.737802,47.956723]},"properties":{"id":"4725","name":"La Corbinais","terminus":[],"limits":["07:41:00","17:38:00"],"lines":["0455,1","0455,0"]}},{"type":"Feature","geometry":{"type":"Point","coordinates":[-1.708507,47.968975]},"properties":{"id":"4727","name":"La Feutelais","terminus":[],"limits":["07:52:00","07:52:00"],"lines":["0456,1"]}},{"type":"Feature","geometry":{"type":"Point","coordinates":[-1.708618,47.968922]},"properties":{"id":"4728","name":"La Feutelais","terminus":[],"limits":["12:57:00","17:27:00"],"lines":["0456,0"]}},{"type":"Feature","geometry":{"type":"Point","coordinates":[-1.710578,47.939631]},"properties":{"id":"4729","name":"La Gicquelais","terminus":[],"limits":["13:02:00","17:45:00"],"lines":["0456,0","0409,0"]}},{"type":"Feature","geometry":{"type":"Point","coordinates":[-1.710619,47.939553]},"properties":{"id":"4730","name":"La Gicquelais","terminus":[],"limits":["07:40:00","07:46:00"],"lines":["0456,1","0409,1"]}},{"type":"Feature","geometry":{"type":"Point","coordinates":[-1.732801,47.956454]},"properties":{"id":"4731","name":"La Macillais","terminus":[],"limits":["07:40:00","17:37:00"],"lines":["0455,1","0455,0"]}},{"type":"Feature","geometry":{"type":"Point","coordinates":[-1.705312,47.985864]},"properties":{"id":"4737","name":"L'Ardrais","terminus":[],"limits":["07:47:00","17:20:00"],"lines":["0456,0","0411,1"]}},{"type":"Feature","geometry":{"type":"Point","coordinates":[-1.705131,47.985817]},"properties":{"id":"4738","name":"L'Ardrais","terminus":[],"limits":["07:58:00","17:37:00"],"lines":["0456,1","0411,0"]}},{"type":"Feature","geometry":{"type":"Point","coordinates":[-1.72413,47.968208]},"properties":{"id":"4739","name":"Le Cleux","terminus":[],"limits":["07:37:00","17:34:00"],"lines":["0455,1","0455,0"]}},{"type":"Feature","geometry":{"type":"Point","coordinates":[-1.718862,47.98519]},"properties":{"id":"4740","name":"Le Nid","terminus":["0412,0"],"limits":["07:49:00","17:34:00"],"lines":["0412,1","0412,0","0455,1"]}},{"type":"Feature","geometry":{"type":"Point","coordinates":[-1.719023,47.985177]},"properties":{"id":"4741","name":"Le Nid","terminus":[],"limits":["12:57:00","17:27:00"],"lines":["0455,0"]}},{"type":"Feature","geometry":{"type":"Point","coordinates":[-1.743022,47.974258]},"properties":{"id":"4742","name":"Les Vallées","terminus":["0455,0","0410,0"],"limits":["07:35:00","17:50:00"],"lines":["0455,1","0455,0","0410,1","0410,0"]}},{"type":"Feature","geometry":{"type":"Point","coordinates":[-1.724079,48.001723]},"properties":{"id":"4746","name":"Martigné","terminus":[],"limits":["12:52:00","17:22:00"],"lines":["0455,0"]}},{"type":"Feature","geometry":{"type":"Point","coordinates":[-1.7241,48.001642]},"properties":{"id":"4747","name":"Martigné","terminus":[],"limits":["07:46:00","17:30:00"],"lines":["0455,1","0410,1","0410,0"]}},{"type":"Feature","geometry":{"type":"Point","coordinates":[-1.686219,47.954602]},"properties":{"id":"4748","name":"Montheleu","terminus":[],"limits":["13:18:00","17:57:00"],"lines":["0406,0","0453,0"]}},{"type":"Feature","geometry":{"type":"Point","coordinates":[-1.686146,47.954628]},"properties":{"id":"4749","name":"Montheleu","terminus":[],"limits":["07:42:00","07:42:00"],"lines":["0406,1"]}},{"type":"Feature","geometry":{"type":"Point","coordinates":[-1.742873,47.962967]},"properties":{"id":"4750","name":"Rouesnais Sud","terminus":[],"limits":["07:43:00","17:40:00"],"lines":["0455,1","0455,0"]}},{"type":"Feature","geometry":{"type":"Point","coordinates":[-1.744424,47.968624]},"properties":{"id":"4752","name":"Rouesnais Nord","terminus":[],"limits":["07:33:00","17:49:00"],"lines":["0455,1","0455,0","0410,1","0410,0"]}},{"type":"Feature","geometry":{"type":"Point","coordinates":[-1.714829,47.973599]},"properties":{"id":"4754","name":"ZA Le Rachat","terminus":[],"limits":["12:55:00","17:41:00"],"lines":["0456,0","0409,0"]}},{"type":"Feature","geometry":{"type":"Point","coordinates":[-1.714791,47.973679]},"properties":{"id":"4755","name":"ZA Le Rachat","terminus":[],"limits":["07:44:00","07:54:00"],"lines":["0456,1","0409,1"]}},{"type":"Feature","geometry":{"type":"Point","coordinates":[-1.726359,47.94704]},"properties":{"id":"4758","name":"Gripay","terminus":["0456,0","0409,0"],"limits":["13:07:00","17:49:00"],"lines":["0456,0","0409,0"]}},{"type":"Feature","geometry":{"type":"Point","coordinates":[-1.728573,47.944867]},"properties":{"id":"4759","name":"Couais","terminus":[],"limits":["07:36:00","07:43:00"],"lines":["0456,1","0409,1"]}},{"type":"Feature","geometry":{"type":"Point","coordinates":[-1.724105,47.968296]},"properties":{"id":"4761","name":"Le Cleux","terminus":[],"limits":["07:30:00","17:44:00"],"lines":["0410,1","0410,0"]}},{"type":"Feature","geometry":{"type":"Point","coordinates":[-1.943328,48.297203]},"properties":{"id":"4805","name":"Bécherel Ecole","terminus":["0470,1"],"limits":["08:45:00","16:45:00"],"lines":["0470,0","0470,1"]}},{"type":"Feature","geometry":{"type":"Point","coordinates":[-1.856918,48.271961]},"properties":{"id":"4850","name":"Chapelle-Chaussée","terminus":[],"limits":["07:25:00","16:30:00"],"lines":["0475,0","0470,1"]}},{"type":"Feature","geometry":{"type":"Point","coordinates":[-1.856733,48.272026]},"properties":{"id":"4851","name":"Chapelle-Chaussée","terminus":["0475,1","0470,0"],"limits":["09:00:00","18:13:00"],"lines":["0475,1","0470,0"]}},{"type":"Feature","geometry":{"type":"Point","coordinates":[-1.853167,48.244848]},"properties":{"id":"4902","name":"Langan Bourg","terminus":[],"limits":["08:00:00","08:00:00"],"lines":["0471,0"]}},{"type":"Feature","geometry":{"type":"Point","coordinates":[-1.853257,48.244609]},"properties":{"id":"4903","name":"Langan Bourg","terminus":[],"limits":["12:55:00","17:20:00"],"lines":["0471,1"]}},{"type":"Feature","geometry":{"type":"Point","coordinates":[-1.843908,48.23421]},"properties":{"id":"4904","name":"Rouaudière","terminus":[],"limits":["12:57:00","17:22:00"],"lines":["0471,1"]}},{"type":"Feature","geometry":{"type":"Point","coordinates":[-1.843947,48.234302]},"properties":{"id":"4905","name":"Rouaudière","terminus":[],"limits":["07:58:00","07:58:00"],"lines":["0471,0"]}},{"type":"Feature","geometry":{"type":"Point","coordinates":[-1.855924,48.209119]},"properties":{"id":"6007","name":"Hattais Ville Greffier","terminus":["0471,1"],"limits":["13:13:00","17:38:00"],"lines":["0471,1"]}},{"type":"Feature","geometry":{"type":"Point","coordinates":[-1.856081,48.20899]},"properties":{"id":"6008","name":"Hattais Ville Greffier","terminus":[],"limits":["07:40:00","07:40:00"],"lines":["0471,0"]}},{"type":"Feature","geometry":{"type":"Point","coordinates":[-1.846742,48.203823]},"properties":{"id":"6009","name":"Le Suet","terminus":[],"limits":["13:11:00","17:36:00"],"lines":["0471,1"]}},{"type":"Feature","geometry":{"type":"Point","coordinates":[-1.846649,48.203748]},"properties":{"id":"6010","name":"Le Suet","terminus":[],"limits":["07:43:00","07:43:00"],"lines":["0471,0"]}},{"type":"Feature","geometry":{"type":"Point","coordinates":[-1.835797,48.207826]},"properties":{"id":"6011","name":"Romillé Pigeon Blanc","terminus":[],"limits":["13:05:00","17:30:00"],"lines":["0471,1"]}},{"type":"Feature","geometry":{"type":"Point","coordinates":[-1.83572,48.207787]},"properties":{"id":"6012","name":"Romillé Pigeon Blanc","terminus":[],"limits":["07:50:00","07:50:00"],"lines":["0471,0"]}},{"type":"Feature","geometry":{"type":"Point","coordinates":[-1.861894,48.241193]},"properties":{"id":"6013","name":"Chauvrais Malabry","terminus":[],"limits":["12:50:00","17:15:00"],"lines":["0471,1"]}},{"type":"Feature","geometry":{"type":"Point","coordinates":[-1.864118,48.240291]},"properties":{"id":"6014","name":"Chauvrais Malabry","terminus":[],"limits":["08:04:00","08:04:00"],"lines":["0471,0"]}},{"type":"Feature","geometry":{"type":"Point","coordinates":[-1.86482,48.235015]},"properties":{"id":"6015","name":"Bois Menu","terminus":[],"limits":["12:49:00","17:14:00"],"lines":["0471,1"]}},{"type":"Feature","geometry":{"type":"Point","coordinates":[-1.865055,48.234896]},"properties":{"id":"6016","name":"Bois Menu","terminus":[],"limits":["08:05:00","08:05:00"],"lines":["0471,0"]}},{"type":"Feature","geometry":{"type":"Point","coordinates":[-1.895739,48.218585]},"properties":{"id":"6021","name":"Romillé Collège","terminus":["0471,0"],"limits":["08:15:00","17:05:00"],"lines":["0471,0","0471,1"]}}]}