{"type":"FeatureCollection","features":[{"type":"Feature","geometry":{"type":"Point","coordinates":[-1.63253,48.129077]},"properties":{"id":"1001","name":"Longs Champs","terminus":[],"limits":["06:03:00","23:28:00"],"lines":["0001,0"]}},{"type":"Feature","geometry":{"type":"Point","coordinates":[-1.637782,48.128283]},"properties":{"id":"1002","name":"Bouzat","terminus":[],"limits":["06:04:00","23:29:00"],"lines":["0001,0"]}},{"type":"Feature","geometry":{"type":"Point","coordinates":[-1.640433,48.127369]},"properties":{"id":"1003","name":"Gallet","terminus":[],"limits":["06:05:00","23:30:00"],"lines":["0001,0"]}},{"type":"Feature","geometry":{"type":"Point","coordinates":[-1.642676,48.125244]},"properties":{"id":"1004","name":"Donzelot","terminus":[],"limits":["06:06:00","23:31:00"],"lines":["0001,0","0050,0"]}},{"type":"Feature","geometry":{"type":"Point","coordinates":[-1.647064,48.123081]},"properties":{"id":"1005","name":"Mirabeau","terminus":[],"limits":["06:07:00","23:32:00"],"lines":["0001,0","0050,0"]}},{"type":"Feature","geometry":{"type":"Point","coordinates":[-1.655036,48.121446]},"properties":{"id":"1007","name":"Assomption","terminus":[],"limits":["06:11:00","23:36:00"],"lines":["0014,0","0001,0","0122,0"]}},{"type":"Feature","geometry":{"type":"Point","coordinates":[-1.660216,48.123212]},"properties":{"id":"1008","name":"Painlevé","terminus":[],"limits":["06:13:00","23:38:00"],"lines":["0001,0","0122,0"]}},{"type":"Feature","geometry":{"type":"Point","coordinates":[-1.663186,48.121635]},"properties":{"id":"1009","name":"Metz Volney","terminus":[],"limits":["06:13:00","23:44:00"],"lines":["0009,0","0001,0","0122,0"]}},{"type":"Feature","geometry":{"type":"Point","coordinates":[-1.667693,48.119241]},"properties":{"id":"1010","name":"Guéhenno","terminus":[],"limits":["06:14:00","23:45:00"],"lines":["0036,0","0031,0","0009,0","0001,0","0122,0"]}},{"type":"Feature","geometry":{"type":"Point","coordinates":[-1.671315,48.118312]},"properties":{"id":"1011","name":"Fac de Droit","terminus":[],"limits":["06:15:00","23:46:00"],"lines":["0036,0","0031,0","0009,0","0051,0","0001,0","0122,0"]}},{"type":"Feature","geometry":{"type":"Point","coordinates":[-1.674245,48.11605]},"properties":{"id":"1012","name":"Sévigné","terminus":[],"limits":["06:16:00","23:49:00"],"lines":["0005,0","0009,0","0001,0","0122,0"]}},{"type":"Feature","geometry":{"type":"Point","coordinates":[-1.679038,48.113739]},"properties":{"id":"1014","name":"Sainte-Anne","terminus":[],"limits":["06:18:00","23:52:00"],"lines":["0005,0","0009,0","0001,0","0122,0"]}},{"type":"Feature","geometry":{"type":"Point","coordinates":[-1.680352,48.11252]},"properties":{"id":"1015","name":"Champ Jacquet","terminus":[],"limits":["06:19:00","23:53:00"],"lines":["0005,0","0009,0","0001,0","0122,0"]}},{"type":"Feature","geometry":{"type":"Point","coordinates":[-1.680101,48.110073]},"properties":{"id":"1016","name":"République","terminus":[],"limits":["06:20:00","23:50:00"],"lines":["0005,1","0009,1","0001,1","0122,1"]}},{"type":"Feature","geometry":{"type":"Point","coordinates":[-1.680213,48.108415]},"properties":{"id":"1017","name":"La Criée","terminus":[],"limits":["05:46:00","23:56:00"],"lines":["0005,0","0009,0","0001,0","0057,0"]}},{"type":"Feature","geometry":{"type":"Point","coordinates":[-1.680999,48.106204]},"properties":{"id":"1018","name":"Plélo Colombier","terminus":[],"limits":["05:47:00","23:57:00"],"lines":["0005,0","0009,0","0057,0"]}},{"type":"Feature","geometry":{"type":"Point","coordinates":[-1.684731,48.105084]},"properties":{"id":"1019","name":"Cité Judiciaire","terminus":[],"limits":["05:49:00","23:49:00"],"lines":["0005,0","0057,0"]}},{"type":"Feature","geometry":{"type":"Point","coordinates":[-1.689566,48.097442]},"properties":{"id":"1020","name":"Mermoz","terminus":[],"limits":["05:51:00","23:51:00"],"lines":["0057,0"]}},{"type":"Feature","geometry":{"type":"Point","coordinates":[-1.684005,48.105444]},"properties":{"id":"1021","name":"Cité Judiciaire","terminus":[],"limits":["06:15:00","23:58:00"],"lines":["0005,1","0009,1","0057,1"]}},{"type":"Feature","geometry":{"type":"Point","coordinates":[-1.680736,48.106222]},"properties":{"id":"1022","name":"Plélo Colombier","terminus":[],"limits":["06:16:00","24:00:00"],"lines":["0005,1","0009,1","0057,1"]}},{"type":"Feature","geometry":{"type":"Point","coordinates":[-1.680048,48.108066]},"properties":{"id":"1023","name":"La Criée","terminus":[],"limits":["06:19:00","23:39:00"],"lines":["0005,1","0009,1","0001,1"]}},{"type":"Feature","geometry":{"type":"Point","coordinates":[-1.680268,48.109977]},"properties":{"id":"1024","name":"République","terminus":["0001,0"],"limits":["06:20:00","24:00:00"],"lines":["0005,0","0009,0","0001,0","0122,0"]}},{"type":"Feature","geometry":{"type":"Point","coordinates":[-1.680211,48.112738]},"properties":{"id":"1025","name":"Champ Jacquet","terminus":[],"limits":["06:26:00","23:51:00"],"lines":["0005,1","0009,1","0012,1","0001,1","0122,1"]}},{"type":"Feature","geometry":{"type":"Point","coordinates":[-1.679242,48.11482]},"properties":{"id":"1026","name":"Sainte-Anne","terminus":[],"limits":["06:28:00","23:53:00"],"lines":["0005,1","0009,1","0012,1","0051,1","0001,1","0122,1"]}},{"type":"Feature","geometry":{"type":"Point","coordinates":[-1.677351,48.117163]},"properties":{"id":"1027","name":"Hôtel Dieu","terminus":[],"limits":["06:16:00","23:54:00"],"lines":["0005,0","0031,1","0009,1","0012,0","0001,1","0122,1"]}},{"type":"Feature","geometry":{"type":"Point","coordinates":[-1.673538,48.117513]},"properties":{"id":"1028","name":"Sévigné","terminus":[],"limits":["06:30:00","23:55:00"],"lines":["0009,1","0001,1","0122,1"]}},{"type":"Feature","geometry":{"type":"Point","coordinates":[-1.669591,48.118281]},"properties":{"id":"1029","name":"Fac de Droit","terminus":[],"limits":["06:31:00","23:56:00"],"lines":["0009,1","0001,1","0122,1"]}},{"type":"Feature","geometry":{"type":"Point","coordinates":[-1.666629,48.119572]},"properties":{"id":"1030","name":"Guéhenno","terminus":[],"limits":["06:32:00","23:57:00"],"lines":["0009,1","0001,1","0122,1"]}},{"type":"Feature","geometry":{"type":"Point","coordinates":[-1.662185,48.121987]},"properties":{"id":"1031","name":"Metz Volney","terminus":[],"limits":["06:33:00","23:58:00"],"lines":["0009,1","0001,1","0122,1"]}},{"type":"Feature","geometry":{"type":"Point","coordinates":[-1.659266,48.123242]},"properties":{"id":"1032","name":"Painlevé","terminus":[],"limits":["06:35:00","23:51:00"],"lines":["0014,1","0001,1"]}},{"type":"Feature","geometry":{"type":"Point","coordinates":[-1.655029,48.12128]},"properties":{"id":"1033","name":"Assomption","terminus":[],"limits":["06:36:00","23:53:00"],"lines":["0014,1","0001,1"]}},{"type":"Feature","geometry":{"type":"Point","coordinates":[-1.650619,48.122185]},"properties":{"id":"1034","name":"Turmel","terminus":[],"limits":[null,null],"lines":["0050,1"]}},{"type":"Feature","geometry":{"type":"Point","coordinates":[-1.645158,48.123677]},"properties":{"id":"1035","name":"Mirabeau","terminus":[],"limits":["06:40:00","23:57:00"],"lines":["0001,1","0050,1"]}},{"type":"Feature","geometry":{"type":"Point","coordinates":[-1.64198,48.125556]},"properties":{"id":"1036","name":"Donzelot","terminus":[],"limits":["06:41:00","23:58:00"],"lines":["0001,1","0050,1"]}},{"type":"Feature","geometry":{"type":"Point","coordinates":[-1.639871,48.127801]},"properties":{"id":"1037","name":"Gallet","terminus":[],"limits":["06:42:00","23:59:00"],"lines":["0001,1"]}},{"type":"Feature","geometry":{"type":"Point","coordinates":[-1.637118,48.128209]},"properties":{"id":"1038","name":"Bouzat","terminus":[],"limits":["06:42:00","23:59:00"],"lines":["0001,1"]}},{"type":"Feature","geometry":{"type":"Point","coordinates":[-1.63238,48.128998]},"properties":{"id":"1039","name":"Longs Champs","terminus":[],"limits":["06:43:00","24:00:00"],"lines":["0001,1"]}},{"type":"Feature","geometry":{"type":"Point","coordinates":[-1.684377,48.130069]},"properties":{"id":"1040","name":"Donelière","terminus":[],"limits":["06:11:00","23:25:00"],"lines":["0014,1","0002,0","0012,0"]}},{"type":"Feature","geometry":{"type":"Point","coordinates":[-1.68363,48.12896]},"properties":{"id":"1041","name":"Trois Croix","terminus":[],"limits":["06:36:00","23:51:00"],"lines":["0014,0","0002,1","0012,1"]}},{"type":"Feature","geometry":{"type":"Point","coordinates":[-1.681766,48.124255]},"properties":{"id":"1042","name":"Cimetière Nord","terminus":[],"limits":["06:13:00","23:27:00"],"lines":["0002,0","0012,0"]}},{"type":"Feature","geometry":{"type":"Point","coordinates":[-1.684238,48.123614]},"properties":{"id":"1043","name":"Saint-Martin","terminus":[],"limits":["06:14:00","23:28:00"],"lines":["0002,0","0012,0"]}},{"type":"Feature","geometry":{"type":"Point","coordinates":[-1.685924,48.122179]},"properties":{"id":"1044","name":"ESPE de Bretagne","terminus":[],"limits":["06:14:00","23:28:00"],"lines":["0002,0"]}},{"type":"Feature","geometry":{"type":"Point","coordinates":[-1.689403,48.11824]},"properties":{"id":"1046","name":"Anatole France","terminus":[],"limits":["06:16:00","23:30:00"],"lines":["0002,0"]}},{"type":"Feature","geometry":{"type":"Point","coordinates":[-1.691288,48.11612]},"properties":{"id":"1047","name":"La Touche","terminus":[],"limits":["06:17:00","23:31:00"],"lines":["0002,0","0031,0"]}},{"type":"Feature","geometry":{"type":"Point","coordinates":[-1.693476,48.113357]},"properties":{"id":"1048","name":"Brest Verdun","terminus":[],"limits":["06:18:00","23:32:00"],"lines":["0002,0","0031,0"]}},{"type":"Feature","geometry":{"type":"Point","coordinates":[-1.689371,48.111632]},"properties":{"id":"1049","name":"Horizons","terminus":[],"limits":["06:19:00","23:33:00"],"lines":["0002,0"]}},{"type":"Feature","geometry":{"type":"Point","coordinates":[-1.686999,48.111647]},"properties":{"id":"1050","name":"Les Lices","terminus":[],"limits":["06:20:00","23:34:00"],"lines":["0002,0"]}},{"type":"Feature","geometry":{"type":"Point","coordinates":[-1.68328,48.109888]},"properties":{"id":"1051","name":"Place de Bretagne","terminus":[],"limits":["06:26:00","23:47:00"],"lines":["0004,0","0002,1","0011,0","0006,0","0121,0"]}},{"type":"Feature","geometry":{"type":"Point","coordinates":[-1.678869,48.109934]},"properties":{"id":"1052","name":"République","terminus":["0121,0"],"limits":["06:21:00","23:45:00"],"lines":["0004,0","0006,0","0121,0"]}},{"type":"Feature","geometry":{"type":"Point","coordinates":[-1.675176,48.107564]},"properties":{"id":"1054","name":"Liberté TNB","terminus":[],"limits":["06:19:00","23:29:00"],"lines":["0002,1","0011,0","0001,1"]}},{"type":"Feature","geometry":{"type":"Point","coordinates":[-1.67401,48.106057]},"properties":{"id":"1055","name":"Champs Libres","terminus":[],"limits":["06:18:00","23:28:00"],"lines":["0002,1","0011,0","0001,1"]}},{"type":"Feature","geometry":{"type":"Point","coordinates":[-1.672374,48.104385]},"properties":{"id":"1056","name":"Gares","terminus":[],"limits":["06:17:00","23:27:00"],"lines":["0002,1","0011,0","0001,1"]}},{"type":"Feature","geometry":{"type":"Point","coordinates":[-1.667309,48.104724]},"properties":{"id":"1057","name":"Laënnec","terminus":[],"limits":["06:16:00","23:26:00"],"lines":["0002,1","0011,0","0001,1"]}},{"type":"Feature","geometry":{"type":"Point","coordinates":[-1.657522,48.099452]},"properties":{"id":"1060","name":"Piré","terminus":[],"limits":["06:32:00","23:53:00"],"lines":["0002,0"]}},{"type":"Feature","geometry":{"type":"Point","coordinates":[-1.654254,48.097255]},"properties":{"id":"1061","name":"Bourgeois","terminus":[],"limits":["06:33:00","23:54:00"],"lines":["0002,0"]}},{"type":"Feature","geometry":{"type":"Point","coordinates":[-1.650566,48.09511]},"properties":{"id":"1062","name":"Calmette","terminus":[],"limits":["06:34:00","23:55:00"],"lines":["0002,0"]}},{"type":"Feature","geometry":{"type":"Point","coordinates":[-1.64749,48.09273]},"properties":{"id":"1063","name":"Monsieur Vincent","terminus":[],"limits":["06:35:00","23:56:00"],"lines":["0002,0"]}},{"type":"Feature","geometry":{"type":"Point","coordinates":[-1.645018,48.090281]},"properties":{"id":"1064","name":"Lycée Descartes","terminus":[],"limits":["06:36:00","23:57:00"],"lines":["0002,0"]}},{"type":"Feature","geometry":{"type":"Point","coordinates":[-1.64393,48.087621]},"properties":{"id":"1065","name":"La Poterie","terminus":["0122,0"],"limits":[null,null],"lines":["0122,0","0122,1"]}},{"type":"Feature","geometry":{"type":"Point","coordinates":[-1.638596,48.087788]},"properties":{"id":"1066","name":"Monnet","terminus":[],"limits":["06:38:00","23:59:00"],"lines":["0002,0"]}},{"type":"Feature","geometry":{"type":"Point","coordinates":[-1.635281,48.089455]},"properties":{"id":"1067","name":"Bourgueil","terminus":[],"limits":["06:39:00","24:00:00"],"lines":["0002,0"]}},{"type":"Feature","geometry":{"type":"Point","coordinates":[-1.636471,48.092067]},"properties":{"id":"1068","name":"Gohier","terminus":[],"limits":["06:39:00","24:00:00"],"lines":["0002,0"]}},{"type":"Feature","geometry":{"type":"Point","coordinates":[-1.63962,48.092756]},"properties":{"id":"1069","name":"Ronceray","terminus":[],"limits":["06:40:00","23:06:00"],"lines":["0002,0"]}},{"type":"Feature","geometry":{"type":"Point","coordinates":[-1.637889,48.094492]},"properties":{"id":"1070","name":"CARSAT","terminus":[],"limits":["06:41:00","23:07:00"],"lines":["0002,0"]}},{"type":"Feature","geometry":{"type":"Point","coordinates":[-1.636899,48.096225]},"properties":{"id":"1071","name":"Haut Sancé","terminus":["0002,0"],"limits":["06:05:00","23:10:00"],"lines":["0002,1","0002,0"]}},{"type":"Feature","geometry":{"type":"Point","coordinates":[-1.638,48.094922]},"properties":{"id":"1072","name":"CARSAT","terminus":[],"limits":["06:06:00","23:11:00"],"lines":["0002,1"]}},{"type":"Feature","geometry":{"type":"Point","coordinates":[-1.639658,48.092528]},"properties":{"id":"1073","name":"Ronceray","terminus":[],"limits":["06:07:00","23:12:00"],"lines":["0002,1"]}},{"type":"Feature","geometry":{"type":"Point","coordinates":[-1.636274,48.091827]},"properties":{"id":"1074","name":"Gohier","terminus":[],"limits":["06:07:00","23:12:00"],"lines":["0002,1"]}},{"type":"Feature","geometry":{"type":"Point","coordinates":[-1.635568,48.089486]},"properties":{"id":"1075","name":"Bourgueil","terminus":[],"limits":["06:08:00","23:13:00"],"lines":["0002,1"]}},{"type":"Feature","geometry":{"type":"Point","coordinates":[-1.638421,48.087986]},"properties":{"id":"1076","name":"Monnet","terminus":[],"limits":["06:09:00","23:14:00"],"lines":["0002,1"]}},{"type":"Feature","geometry":{"type":"Point","coordinates":[-1.643436,48.087413]},"properties":{"id":"1077","name":"La Poterie","terminus":[],"limits":["06:37:00","23:58:00"],"lines":["0002,0"]}},{"type":"Feature","geometry":{"type":"Point","coordinates":[-1.64466,48.089972]},"properties":{"id":"1078","name":"Lycée Descartes","terminus":[],"limits":["06:11:00","23:16:00"],"lines":["0002,1"]}},{"type":"Feature","geometry":{"type":"Point","coordinates":[-1.647205,48.092772]},"properties":{"id":"1079","name":"Monsieur Vincent","terminus":[],"limits":["06:12:00","23:17:00"],"lines":["0002,1"]}},{"type":"Feature","geometry":{"type":"Point","coordinates":[-1.651543,48.095953]},"properties":{"id":"1080","name":"Calmette","terminus":[],"limits":["06:13:00","23:18:00"],"lines":["0002,1"]}},{"type":"Feature","geometry":{"type":"Point","coordinates":[-1.655275,48.09806]},"properties":{"id":"1081","name":"Bourgeois","terminus":[],"limits":["06:14:00","23:19:00"],"lines":["0002,1"]}},{"type":"Feature","geometry":{"type":"Point","coordinates":[-1.657775,48.099871]},"properties":{"id":"1082","name":"Piré","terminus":[],"limits":["06:15:00","23:20:00"],"lines":["0002,1"]}},{"type":"Feature","geometry":{"type":"Point","coordinates":[-1.666557,48.10471]},"properties":{"id":"1085","name":"Laënnec","terminus":[],"limits":["06:30:00","23:51:00"],"lines":["0002,0","0011,1","0001,0"]}},{"type":"Feature","geometry":{"type":"Point","coordinates":[-1.673939,48.105276]},"properties":{"id":"1087","name":"Champs Libres","terminus":[],"limits":["06:28:00","23:48:00"],"lines":["0002,0","0011,1","0001,0"]}},{"type":"Feature","geometry":{"type":"Point","coordinates":[-1.674981,48.107377]},"properties":{"id":"1088","name":"Liberté TNB","terminus":[],"limits":["06:27:00","23:47:00"],"lines":["0002,0","0011,1","0054,1","0055,1","0056,1","0001,0"]}},{"type":"Feature","geometry":{"type":"Point","coordinates":[-1.677947,48.109526]},"properties":{"id":"1090","name":"République","terminus":["0004,0","0122,0"],"limits":["05:41:00","24:00:00"],"lines":["0004,0","0002,0","0062,0","0122,0"]}},{"type":"Feature","geometry":{"type":"Point","coordinates":[-1.68385,48.109734]},"properties":{"id":"1091","name":"Place de Bretagne","terminus":[],"limits":["06:20:00","23:53:00"],"lines":["0004,1","0002,0","0011,1","0006,1","0121,1"]}},{"type":"Feature","geometry":{"type":"Point","coordinates":[-1.686216,48.111759]},"properties":{"id":"1092","name":"Les Lices","terminus":[],"limits":["06:28:00","23:43:00"],"lines":["0002,1"]}},{"type":"Feature","geometry":{"type":"Point","coordinates":[-1.689653,48.111757]},"properties":{"id":"1093","name":"Horizons","terminus":[],"limits":["06:29:00","23:44:00"],"lines":["0002,1"]}},{"type":"Feature","geometry":{"type":"Point","coordinates":[-1.69329,48.113208]},"properties":{"id":"1094","name":"Brest Verdun","terminus":[],"limits":["06:30:00","23:45:00"],"lines":["0002,1","0031,1"]}},{"type":"Feature","geometry":{"type":"Point","coordinates":[-1.690744,48.116505]},"properties":{"id":"1095","name":"La Touche","terminus":[],"limits":["06:31:00","23:46:00"],"lines":["0002,1","0031,1"]}},{"type":"Feature","geometry":{"type":"Point","coordinates":[-1.689248,48.118193]},"properties":{"id":"1096","name":"Anatole France","terminus":[],"limits":["06:32:00","23:47:00"],"lines":["0002,1"]}},{"type":"Feature","geometry":{"type":"Point","coordinates":[-1.686759,48.121017]},"properties":{"id":"1097","name":"ESPE de Bretagne","terminus":[],"limits":["06:33:00","23:48:00"],"lines":["0002,1"]}},{"type":"Feature","geometry":{"type":"Point","coordinates":[-1.683606,48.123587]},"properties":{"id":"1099","name":"Saint-Martin","terminus":[],"limits":["06:34:00","23:49:00"],"lines":["0002,1","0012,1"]}},{"type":"Feature","geometry":{"type":"Point","coordinates":[-1.681973,48.12503]},"properties":{"id":"1100","name":"Cimetière Nord","terminus":[],"limits":["06:35:00","23:50:00"],"lines":["0002,1","0012,1"]}},{"type":"Feature","geometry":{"type":"Point","coordinates":[-1.68326,48.127266]},"properties":{"id":"1101","name":"Trois Croix","terminus":[],"limits":["06:12:00","23:26:00"],"lines":["0002,0","0012,0"]}},{"type":"Feature","geometry":{"type":"Point","coordinates":[-1.684599,48.131357]},"properties":{"id":"1102","name":"Donelière","terminus":[],"limits":["06:37:00","23:52:00"],"lines":["0014,0","0002,1","0012,1"]}},{"type":"Feature","geometry":{"type":"Point","coordinates":[-1.659072,48.138802]},"properties":{"id":"1103","name":"Saint-Laurent","terminus":["0003,1"],"limits":["06:04:00","23:30:00"],"lines":["0003,0","0003,1"]}},{"type":"Feature","geometry":{"type":"Point","coordinates":[-1.658572,48.134745]},"properties":{"id":"1104","name":"Hôtel de Région","terminus":[],"limits":["06:06:00","23:32:00"],"lines":["0003,0"]}},{"type":"Feature","geometry":{"type":"Point","coordinates":[-1.655711,48.1355]},"properties":{"id":"1105","name":"Héronière","terminus":[],"limits":["06:07:00","23:33:00"],"lines":["0003,0"]}},{"type":"Feature","geometry":{"type":"Point","coordinates":[-1.652215,48.134264]},"properties":{"id":"1106","name":"Gayeulles Piscine","terminus":[],"limits":["06:07:00","23:33:00"],"lines":["0003,0"]}},{"type":"Feature","geometry":{"type":"Point","coordinates":[-1.652121,48.13087]},"properties":{"id":"1107","name":"Le Blizz","terminus":[],"limits":["06:08:00","23:34:00"],"lines":["0003,0","0122,1"]}},{"type":"Feature","geometry":{"type":"Point","coordinates":[-1.652232,48.128344]},"properties":{"id":"1108","name":"Gayeulles","terminus":["0122,1"],"limits":["06:09:00","23:35:00"],"lines":["0003,0","0122,0","0122,1"]}},{"type":"Feature","geometry":{"type":"Point","coordinates":[-1.65077,48.120189]},"properties":{"id":"1111","name":"Docteur Quentin","terminus":[],"limits":["06:12:00","23:38:00"],"lines":["0014,1","0003,0"]}},{"type":"Feature","geometry":{"type":"Point","coordinates":[-1.651063,48.11893]},"properties":{"id":"1112","name":"Vitré Danton","terminus":[],"limits":["06:13:00","23:39:00"],"lines":["0003,0","0031,0"]}},{"type":"Feature","geometry":{"type":"Point","coordinates":[-1.655681,48.116369]},"properties":{"id":"1113","name":"Jeanne d'Arc","terminus":[],"limits":["06:14:00","23:40:00"],"lines":["0003,0"]}},{"type":"Feature","geometry":{"type":"Point","coordinates":[-1.658017,48.114521]},"properties":{"id":"1114","name":"Durafour","terminus":[],"limits":["06:15:00","23:41:00"],"lines":["0003,0"]}},{"type":"Feature","geometry":{"type":"Point","coordinates":[-1.661409,48.113459]},"properties":{"id":"1115","name":"Oberthur","terminus":[],"limits":["06:16:00","23:42:00"],"lines":["0003,0"]}},{"type":"Feature","geometry":{"type":"Point","coordinates":[-1.664452,48.112746]},"properties":{"id":"1116","name":"Saint-Vincent","terminus":[],"limits":["06:16:00","23:42:00"],"lines":["0003,0"]}},{"type":"Feature","geometry":{"type":"Point","coordinates":[-1.666797,48.112528]},"properties":{"id":"1117","name":"Châteaudun","terminus":[],"limits":["06:17:00","23:43:00"],"lines":["0003,0"]}},{"type":"Feature","geometry":{"type":"Point","coordinates":[-1.671244,48.111816]},"properties":{"id":"1118","name":"Thabor","terminus":[],"limits":["06:18:00","23:44:00"],"lines":["0003,0"]}},{"type":"Feature","geometry":{"type":"Point","coordinates":[-1.67795,48.10997]},"properties":{"id":"1120","name":"République","terminus":[],"limits":["06:22:00","23:55:00"],"lines":["0003,0"]}},{"type":"Feature","geometry":{"type":"Point","coordinates":[-1.677817,48.106067]},"properties":{"id":"1121","name":"Charles de Gaulle","terminus":[],"limits":["06:27:00","23:57:00"],"lines":["0003,0","0012,0","0122,0"]}},{"type":"Feature","geometry":{"type":"Point","coordinates":[-1.676912,48.103005]},"properties":{"id":"1122","name":"Gare Sud Féval","terminus":[],"limits":["06:28:00","23:58:00"],"lines":["0003,0","0012,0","0122,0"]}},{"type":"Feature","geometry":{"type":"Point","coordinates":[-1.675756,48.099181]},"properties":{"id":"1123","name":"Ginguené","terminus":[],"limits":["06:29:00","23:59:00"],"lines":["0003,0","0012,0","0122,0"]}},{"type":"Feature","geometry":{"type":"Point","coordinates":[-1.675489,48.097396]},"properties":{"id":"1124","name":"Jacques Cartier","terminus":[],"limits":["06:30:00","24:00:00"],"lines":["0003,0"]}},{"type":"Feature","geometry":{"type":"Point","coordinates":[-1.679166,48.096926]},"properties":{"id":"1125","name":"Sacrés Coeurs","terminus":[],"limits":["06:31:00","23:16:00"],"lines":["0003,0"]}},{"type":"Feature","geometry":{"type":"Point","coordinates":[-1.681712,48.096023]},"properties":{"id":"1126","name":"Garigliano","terminus":[],"limits":["06:31:00","23:17:00"],"lines":["0003,0"]}},{"type":"Feature","geometry":{"type":"Point","coordinates":[-1.681932,48.093042]},"properties":{"id":"1127","name":"Frères Moine","terminus":[],"limits":["06:32:00","23:18:00"],"lines":["0003,0"]}},{"type":"Feature","geometry":{"type":"Point","coordinates":[-1.682187,48.09107]},"properties":{"id":"1128","name":"Champs Manceaux","terminus":[],"limits":["06:33:00","23:19:00"],"lines":["0003,0"]}},{"type":"Feature","geometry":{"type":"Point","coordinates":[-1.682479,48.087271]},"properties":{"id":"1129","name":"Suède","terminus":[],"limits":["06:34:00","23:20:00"],"lines":["0003,0"]}},{"type":"Feature","geometry":{"type":"Point","coordinates":[-1.682537,48.085168]},"properties":{"id":"1130","name":"Canada","terminus":[],"limits":["06:35:00","23:21:00"],"lines":["0003,0","0013,1"]}},{"type":"Feature","geometry":{"type":"Point","coordinates":[-1.682259,48.085207]},"properties":{"id":"1134","name":"Canada","terminus":[],"limits":["06:11:00","23:30:00"],"lines":["0003,1","0013,0"]}},{"type":"Feature","geometry":{"type":"Point","coordinates":[-1.68215,48.088085]},"properties":{"id":"1135","name":"Suède","terminus":[],"limits":["06:12:00","23:31:00"],"lines":["0003,1"]}},{"type":"Feature","geometry":{"type":"Point","coordinates":[-1.682019,48.091086]},"properties":{"id":"1136","name":"Champs Manceaux","terminus":[],"limits":["06:13:00","23:32:00"],"lines":["0003,1"]}},{"type":"Feature","geometry":{"type":"Point","coordinates":[-1.681809,48.093597]},"properties":{"id":"1137","name":"Frères Moine","terminus":[],"limits":["06:14:00","23:33:00"],"lines":["0003,1"]}},{"type":"Feature","geometry":{"type":"Point","coordinates":[-1.681543,48.096363]},"properties":{"id":"1138","name":"Garigliano","terminus":[],"limits":["06:14:00","23:33:00"],"lines":["0003,1"]}},{"type":"Feature","geometry":{"type":"Point","coordinates":[-1.678484,48.096914]},"properties":{"id":"1139","name":"Sacrés Coeurs","terminus":[],"limits":["06:15:00","23:34:00"],"lines":["0003,1"]}},{"type":"Feature","geometry":{"type":"Point","coordinates":[-1.674416,48.097421]},"properties":{"id":"1140","name":"Jacques Cartier","terminus":[],"limits":["06:30:00","22:35:00"],"lines":["0012,0"]}},{"type":"Feature","geometry":{"type":"Point","coordinates":[-1.675803,48.100009]},"properties":{"id":"1141","name":"Ginguené","terminus":[],"limits":["06:17:00","23:36:00"],"lines":["0003,1","0012,1","0122,1"]}},{"type":"Feature","geometry":{"type":"Point","coordinates":[-1.677558,48.106081]},"properties":{"id":"1143","name":"Charles de Gaulle","terminus":[],"limits":["06:19:00","23:38:00"],"lines":["0003,1","0012,1","0122,1"]}},{"type":"Feature","geometry":{"type":"Point","coordinates":[-1.677735,48.110073]},"properties":{"id":"1144","name":"République","terminus":[],"limits":["06:22:00","22:30:00"],"lines":["0012,1"]}},{"type":"Feature","geometry":{"type":"Point","coordinates":[-1.671083,48.111897]},"properties":{"id":"1146","name":"Thabor","terminus":[],"limits":["06:27:00","23:53:00"],"lines":["0003,1"]}},{"type":"Feature","geometry":{"type":"Point","coordinates":[-1.664346,48.112666]},"properties":{"id":"1147","name":"Saint-Vincent","terminus":[],"limits":["06:29:00","23:55:00"],"lines":["0003,1"]}},{"type":"Feature","geometry":{"type":"Point","coordinates":[-1.661265,48.113405]},"properties":{"id":"1148","name":"Oberthur","terminus":[],"limits":["06:30:00","23:56:00"],"lines":["0003,1"]}},{"type":"Feature","geometry":{"type":"Point","coordinates":[-1.658666,48.114248]},"properties":{"id":"1149","name":"Durafour","terminus":[],"limits":["06:30:00","23:57:00"],"lines":["0003,1"]}},{"type":"Feature","geometry":{"type":"Point","coordinates":[-1.65539,48.116588]},"properties":{"id":"1150","name":"Jeanne d'Arc","terminus":[],"limits":["06:32:00","23:58:00"],"lines":["0003,1"]}},{"type":"Feature","geometry":{"type":"Point","coordinates":[-1.651589,48.118733]},"properties":{"id":"1151","name":"Vitré Danton","terminus":[],"limits":["06:33:00","24:00:00"],"lines":["0003,1","0031,1"]}},{"type":"Feature","geometry":{"type":"Point","coordinates":[-1.650675,48.120615]},"properties":{"id":"1152","name":"Docteur Quentin","terminus":[],"limits":["06:34:00","23:21:00"],"lines":["0014,0","0003,1","0050,1"]}},{"type":"Feature","geometry":{"type":"Point","coordinates":[-1.652001,48.129145]},"properties":{"id":"1155","name":"Gayeulles","terminus":[],"limits":["06:37:00","23:24:00"],"lines":["0003,1"]}},{"type":"Feature","geometry":{"type":"Point","coordinates":[-1.651905,48.131782]},"properties":{"id":"1156","name":"Le Blizz","terminus":[],"limits":["06:38:00","23:25:00"],"lines":["0003,1"]}},{"type":"Feature","geometry":{"type":"Point","coordinates":[-1.651955,48.134935]},"properties":{"id":"1157","name":"Gayeulles Piscine","terminus":[],"limits":["06:38:00","23:26:00"],"lines":["0003,1"]}},{"type":"Feature","geometry":{"type":"Point","coordinates":[-1.656126,48.135605]},"properties":{"id":"1158","name":"Héronière","terminus":[],"limits":["06:39:00","23:27:00"],"lines":["0003,1"]}},{"type":"Feature","geometry":{"type":"Point","coordinates":[-1.658784,48.134358]},"properties":{"id":"1159","name":"Hôtel de Région","terminus":[],"limits":["06:07:00","23:39:00"],"lines":["0014,1","0009,0"]}},{"type":"Feature","geometry":{"type":"Point","coordinates":[-1.637565,48.114099]},"properties":{"id":"1160","name":"Tournebride","terminus":[],"limits":["06:12:00","23:48:00"],"lines":["0004,0","0006,0","0121,0"]}},{"type":"Feature","geometry":{"type":"Point","coordinates":[-1.644227,48.112232]},"properties":{"id":"1161","name":"Plaine de Baud","terminus":[],"limits":["05:35:00","23:50:00"],"lines":["0004,0","0006,0","0121,0"]}},{"type":"Feature","geometry":{"type":"Point","coordinates":[-1.660479,48.110164]},"properties":{"id":"1163","name":"Robidou","terminus":[],"limits":["05:38:00","23:53:00"],"lines":["0004,0","0064,0","0067,0","0006,0","0121,0","0050,0"]}},{"type":"Feature","geometry":{"type":"Point","coordinates":[-1.663921,48.110145]},"properties":{"id":"1164","name":"Pont de Châteaudun","terminus":[],"limits":["05:38:00","23:53:00"],"lines":["0004,0","0006,0","0121,0"]}},{"type":"Feature","geometry":{"type":"Point","coordinates":[-1.67021,48.110111]},"properties":{"id":"1165","name":"Paul Bert","terminus":[],"limits":["05:39:00","23:54:00"],"lines":["0004,0","0006,0","0121,0"]}},{"type":"Feature","geometry":{"type":"Point","coordinates":[-1.675145,48.109914]},"properties":{"id":"1166","name":"Musée Beaux Arts","terminus":[],"limits":["05:40:00","23:55:00"],"lines":["0004,0","0064,0","0006,0","0121,0","0050,0"]}},{"type":"Feature","geometry":{"type":"Point","coordinates":[-1.678734,48.109405]},"properties":{"id":"1167","name":"République","terminus":["0053,1","0064,0"],"limits":["07:20:00","24:00:00"],"lines":["0051,1","0053,1","0053,0","0064,1","0064,0"]}},{"type":"Feature","geometry":{"type":"Point","coordinates":[-1.678807,48.109761]},"properties":{"id":"1168","name":"République","terminus":["0121,1"],"limits":["05:35:00","24:00:00"],"lines":["0004,1","0006,1","0121,1"]}},{"type":"Feature","geometry":{"type":"Point","coordinates":[-1.674483,48.109809]},"properties":{"id":"1169","name":"Musée Beaux Arts","terminus":[],"limits":["05:36:00","23:51:00"],"lines":["0004,1","0064,1","0067,1","0006,1","0121,1","0050,1"]}},{"type":"Feature","geometry":{"type":"Point","coordinates":[-1.669018,48.109996]},"properties":{"id":"1170","name":"Paul Bert","terminus":[],"limits":["05:38:00","23:53:00"],"lines":["0004,1","0006,1","0121,1"]}},{"type":"Feature","geometry":{"type":"Point","coordinates":[-1.663623,48.110016]},"properties":{"id":"1171","name":"Pont de Châteaudun","terminus":[],"limits":["05:39:00","23:54:00"],"lines":["0004,1","0006,1","0121,1"]}},{"type":"Feature","geometry":{"type":"Point","coordinates":[-1.659227,48.11003]},"properties":{"id":"1172","name":"Robidou","terminus":[],"limits":["05:40:00","23:55:00"],"lines":["0004,1","0064,1","0067,1","0006,1","0121,1","0050,1"]}},{"type":"Feature","geometry":{"type":"Point","coordinates":[-1.656165,48.110055]},"properties":{"id":"1173","name":"Pont de Strasbourg","terminus":[],"limits":["05:40:00","23:55:00"],"lines":["0004,1","0006,1","0121,1"]}},{"type":"Feature","geometry":{"type":"Point","coordinates":[-1.64292,48.112437]},"properties":{"id":"1174","name":"Plaine de Baud","terminus":["0004,1"],"limits":["05:43:00","23:58:00"],"lines":["0004,1","0006,1","0121,1"]}},{"type":"Feature","geometry":{"type":"Point","coordinates":[-1.633896,48.117101]},"properties":{"id":"1175","name":"Beaulieu Chimie","terminus":[],"limits":["05:56:00","23:46:00"],"lines":["0004,1","0031,0","0121,1"]}},{"type":"Feature","geometry":{"type":"Point","coordinates":[-1.63521,48.119028]},"properties":{"id":"1176","name":"Beaulieu INSA","terminus":[],"limits":["06:12:00","23:46:00"],"lines":["0004,0","0031,1","0121,0"]}},{"type":"Feature","geometry":{"type":"Point","coordinates":[-1.639592,48.122317]},"properties":{"id":"1177","name":"Beaulieu Restau U","terminus":[],"limits":["07:02:00","20:34:00"],"lines":["0014,0","0031,0","0064,0"]}},{"type":"Feature","geometry":{"type":"Point","coordinates":[-1.643865,48.120832]},"properties":{"id":"1178","name":"Beaulieu Cité U","terminus":[],"limits":["07:03:00","20:35:00"],"lines":["0014,0","0031,0","0064,0"]}},{"type":"Feature","geometry":{"type":"Point","coordinates":[-1.655802,48.117043]},"properties":{"id":"1179","name":"Jeanne d'Arc","terminus":[],"limits":["08:19:00","19:35:00"],"lines":["0031,0"]}},{"type":"Feature","geometry":{"type":"Point","coordinates":[-1.659373,48.116193]},"properties":{"id":"1180","name":"Balzac","terminus":[],"limits":["08:20:00","19:36:00"],"lines":["0031,0"]}},{"type":"Feature","geometry":{"type":"Point","coordinates":[-1.662569,48.116147]},"properties":{"id":"1181","name":"Musset Cité U","terminus":[],"limits":["08:58:00","20:13:00"],"lines":["0031,1"]}},{"type":"Feature","geometry":{"type":"Point","coordinates":[-1.664773,48.116298]},"properties":{"id":"1182","name":"George Sand","terminus":[],"limits":["08:21:00","19:37:00"],"lines":["0031,0"]}},{"type":"Feature","geometry":{"type":"Point","coordinates":[-1.678809,48.117342]},"properties":{"id":"1183","name":"Hôtel Dieu","terminus":[],"limits":["06:33:00","22:36:00"],"lines":["0031,0","0012,1"]}},{"type":"Feature","geometry":{"type":"Point","coordinates":[-1.681484,48.117227]},"properties":{"id":"1184","name":"Dinan","terminus":[],"limits":["08:27:00","19:42:00"],"lines":["0031,0"]}},{"type":"Feature","geometry":{"type":"Point","coordinates":[-1.684992,48.117788]},"properties":{"id":"1185","name":"Legraverend","terminus":[],"limits":["08:28:00","19:43:00"],"lines":["0031,0"]}},{"type":"Feature","geometry":{"type":"Point","coordinates":[-1.688167,48.118577]},"properties":{"id":"1186","name":"Anatole France","terminus":[],"limits":["08:29:00","19:44:00"],"lines":["0031,0"]}},{"type":"Feature","geometry":{"type":"Point","coordinates":[-1.698235,48.114035]},"properties":{"id":"1187","name":"Maison Diocésaine","terminus":[],"limits":["08:32:00","19:47:00"],"lines":["0031,0"]}},{"type":"Feature","geometry":{"type":"Point","coordinates":[-1.701959,48.114898]},"properties":{"id":"1188","name":"La Salle","terminus":[],"limits":["06:13:00","23:46:00"],"lines":["0004,1","0031,1","0121,1"]}},{"type":"Feature","geometry":{"type":"Point","coordinates":[-1.705584,48.116068]},"properties":{"id":"1189","name":"Languedoc","terminus":[],"limits":["08:34:00","19:49:00"],"lines":["0031,0"]}},{"type":"Feature","geometry":{"type":"Point","coordinates":[-1.70835,48.11739]},"properties":{"id":"1190","name":"Villejean-Churchill","terminus":["0031,0"],"limits":["08:35:00","20:00:00"],"lines":["0031,1","0031,0"]}},{"type":"Feature","geometry":{"type":"Point","coordinates":[-1.704489,48.115474]},"properties":{"id":"1191","name":"Languedoc","terminus":[],"limits":["06:13:00","23:46:00"],"lines":["0004,1","0031,1"]}},{"type":"Feature","geometry":{"type":"Point","coordinates":[-1.701423,48.114999]},"properties":{"id":"1192","name":"La Salle","terminus":[],"limits":["06:32:00","23:53:00"],"lines":["0004,0","0031,0","0121,0"]}},{"type":"Feature","geometry":{"type":"Point","coordinates":[-1.69804,48.113738]},"properties":{"id":"1193","name":"Maison Diocésaine","terminus":[],"limits":["08:48:00","20:03:00"],"lines":["0031,1"]}},{"type":"Feature","geometry":{"type":"Point","coordinates":[-1.687217,48.118173]},"properties":{"id":"1194","name":"Anatole France","terminus":[],"limits":["08:52:00","20:07:00"],"lines":["0031,1"]}},{"type":"Feature","geometry":{"type":"Point","coordinates":[-1.684863,48.117663]},"properties":{"id":"1195","name":"Legraverend","terminus":[],"limits":["08:53:00","20:08:00"],"lines":["0031,1"]}},{"type":"Feature","geometry":{"type":"Point","coordinates":[-1.682302,48.117181]},"properties":{"id":"1196","name":"Dinan","terminus":[],"limits":["08:53:00","20:08:00"],"lines":["0031,1"]}},{"type":"Feature","geometry":{"type":"Point","coordinates":[-1.673257,48.116347]},"properties":{"id":"1197","name":"Sévigné","terminus":[],"limits":["08:56:00","20:11:00"],"lines":["0031,1"]}},{"type":"Feature","geometry":{"type":"Point","coordinates":[-1.668859,48.116266]},"properties":{"id":"1198","name":"George Sand","terminus":[],"limits":["08:57:00","20:12:00"],"lines":["0031,1"]}},{"type":"Feature","geometry":{"type":"Point","coordinates":[-1.662785,48.116247]},"properties":{"id":"1199","name":"Musset Cité U","terminus":[],"limits":["08:21:00","19:37:00"],"lines":["0031,0"]}},{"type":"Feature","geometry":{"type":"Point","coordinates":[-1.656369,48.116798]},"properties":{"id":"1200","name":"Jeanne d'Arc","terminus":[],"limits":["09:00:00","20:15:00"],"lines":["0031,1"]}},{"type":"Feature","geometry":{"type":"Point","coordinates":[-1.649111,48.119102]},"properties":{"id":"1201","name":"Vitré Foulon","terminus":[],"limits":["07:44:00","21:51:00"],"lines":["0014,1","0064,1"]}},{"type":"Feature","geometry":{"type":"Point","coordinates":[-1.644215,48.120592]},"properties":{"id":"1202","name":"Beaulieu Cité U","terminus":[],"limits":["07:45:00","21:52:00"],"lines":["0014,1","0031,1","0064,1"]}},{"type":"Feature","geometry":{"type":"Point","coordinates":[-1.639183,48.122308]},"properties":{"id":"1203","name":"Beaulieu Restau U","terminus":[],"limits":["07:45:00","21:53:00"],"lines":["0014,1","0031,1","0064,1"]}},{"type":"Feature","geometry":{"type":"Point","coordinates":[-1.635317,48.119511]},"properties":{"id":"1204","name":"Beaulieu INSA","terminus":[],"limits":["05:57:00","23:47:00"],"lines":["0004,1","0031,0","0121,1"]}},{"type":"Feature","geometry":{"type":"Point","coordinates":[-1.637787,48.104165]},"properties":{"id":"1208","name":"Saint-Saëns","terminus":["0011,1"],"limits":["06:11:00","22:43:00"],"lines":["0011,0","0011,1"]}},{"type":"Feature","geometry":{"type":"Point","coordinates":[-1.64458,48.105033]},"properties":{"id":"1209","name":"Pavie","terminus":[],"limits":["06:12:00","22:11:00"],"lines":["0011,0"]}},{"type":"Feature","geometry":{"type":"Point","coordinates":[-1.64971,48.10431]},"properties":{"id":"1210","name":"Cimetière de l'Est","terminus":[],"limits":["06:13:00","22:12:00"],"lines":["0011,0"]}},{"type":"Feature","geometry":{"type":"Point","coordinates":[-1.652491,48.103116]},"properties":{"id":"1211","name":"Serpette","terminus":[],"limits":["06:53:00","22:40:00"],"lines":["0011,1"]}},{"type":"Feature","geometry":{"type":"Point","coordinates":[-1.656538,48.101949]},"properties":{"id":"1212","name":"Mouézy","terminus":[],"limits":["06:13:00","23:23:00"],"lines":["0011,0","0001,1"]}},{"type":"Feature","geometry":{"type":"Point","coordinates":[-1.661403,48.102902]},"properties":{"id":"1213","name":"Croix Saint-Hélier","terminus":[],"limits":["06:14:00","23:24:00"],"lines":["0002,1","0011,0","0001,1"]}},{"type":"Feature","geometry":{"type":"Point","coordinates":[-1.679644,48.109932]},"properties":{"id":"1214","name":"République","terminus":[],"limits":["06:25:00","24:00:00"],"lines":["0011,0","0054,0","0055,0","0056,0","0077,0"]}},{"type":"Feature","geometry":{"type":"Point","coordinates":[-1.690514,48.109176]},"properties":{"id":"1216","name":"Le Mail","terminus":[],"limits":["06:27:00","23:48:00"],"lines":["0004,0","0011,0","0121,0"]}},{"type":"Feature","geometry":{"type":"Point","coordinates":[-1.694376,48.108292]},"properties":{"id":"1217","name":"Chèques Postaux","terminus":[],"limits":["06:28:00","23:49:00"],"lines":["0004,0","0011,0","0053,0","0054,0","0055,0","0056,0","0121,0"]}},{"type":"Feature","geometry":{"type":"Point","coordinates":[-1.697997,48.109099]},"properties":{"id":"1218","name":"Guilloux Lorient","terminus":[],"limits":["06:30:00","22:35:00"],"lines":["0011,0","0054,0","0055,0","0056,0"]}},{"type":"Feature","geometry":{"type":"Point","coordinates":[-1.703743,48.108274]},"properties":{"id":"1219","name":"Papeteries","terminus":[],"limits":["06:32:00","22:37:00"],"lines":["0011,0"]}},{"type":"Feature","geometry":{"type":"Point","coordinates":[-1.706366,48.109162]},"properties":{"id":"1220","name":"Kerviler","terminus":[],"limits":["06:32:00","22:37:00"],"lines":["0011,0"]}},{"type":"Feature","geometry":{"type":"Point","coordinates":[-1.710766,48.108871]},"properties":{"id":"1221","name":"Géniaux","terminus":[],"limits":["06:33:00","22:38:00"],"lines":["0014,0","0011,0","0054,0","0055,0","0056,0"]}},{"type":"Feature","geometry":{"type":"Point","coordinates":[-1.714065,48.108107]},"properties":{"id":"1222","name":"Roazhon Park","terminus":["0014,0"],"limits":["06:34:00","22:39:00"],"lines":["0014,0","0011,0"]}},{"type":"Feature","geometry":{"type":"Point","coordinates":[-1.723891,48.106212]},"properties":{"id":"1223","name":"Le Hô","terminus":[],"limits":["06:35:00","22:41:00"],"lines":["0011,0"]}},{"type":"Feature","geometry":{"type":"Point","coordinates":[-1.7234,48.102975]},"properties":{"id":"1224","name":"Robinot de St-Cyr","terminus":[],"limits":["06:36:00","22:41:00"],"lines":["0011,0"]}},{"type":"Feature","geometry":{"type":"Point","coordinates":[-1.727062,48.10213]},"properties":{"id":"1225","name":"Jardin Moderne","terminus":[],"limits":["06:37:00","22:42:00"],"lines":["0011,0"]}},{"type":"Feature","geometry":{"type":"Point","coordinates":[-1.731769,48.101258]},"properties":{"id":"1226","name":"Servigné","terminus":[],"limits":["06:37:00","22:43:00"],"lines":["0011,0"]}},{"type":"Feature","geometry":{"type":"Point","coordinates":[-1.731617,48.101154]},"properties":{"id":"1229","name":"Servigné","terminus":[],"limits":["06:52:00","21:53:00"],"lines":["0011,1"]}},{"type":"Feature","geometry":{"type":"Point","coordinates":[-1.726098,48.102175]},"properties":{"id":"1230","name":"Jardin Moderne","terminus":[],"limits":["06:53:00","21:54:00"],"lines":["0011,1"]}},{"type":"Feature","geometry":{"type":"Point","coordinates":[-1.723283,48.103369]},"properties":{"id":"1231","name":"Robinot de St-Cyr","terminus":[],"limits":["06:53:00","21:54:00"],"lines":["0011,1"]}},{"type":"Feature","geometry":{"type":"Point","coordinates":[-1.723704,48.106259]},"properties":{"id":"1232","name":"Le Hô","terminus":[],"limits":["06:54:00","21:55:00"],"lines":["0011,1"]}},{"type":"Feature","geometry":{"type":"Point","coordinates":[-1.72162,48.107021]},"properties":{"id":"1233","name":"Lemaistre","terminus":[],"limits":["06:55:00","21:56:00"],"lines":["0011,1","0054,1","0055,1","0056,1"]}},{"type":"Feature","geometry":{"type":"Point","coordinates":[-1.714796,48.107689]},"properties":{"id":"1234","name":"Roazhon Park","terminus":[],"limits":["06:36:00","21:57:00"],"lines":["0014,1","0011,1"]}},{"type":"Feature","geometry":{"type":"Point","coordinates":[-1.709658,48.108898]},"properties":{"id":"1235","name":"Géniaux","terminus":[],"limits":["06:37:00","21:58:00"],"lines":["0011,1","0054,1","0055,1","0056,1"]}},{"type":"Feature","geometry":{"type":"Point","coordinates":[-1.705656,48.10876]},"properties":{"id":"1236","name":"Kerviler","terminus":[],"limits":["06:38:00","21:59:00"],"lines":["0011,1"]}},{"type":"Feature","geometry":{"type":"Point","coordinates":[-1.702121,48.107689]},"properties":{"id":"1237","name":"Papeteries","terminus":[],"limits":["06:38:00","22:00:00"],"lines":["0011,1"]}},{"type":"Feature","geometry":{"type":"Point","coordinates":[-1.698735,48.108687]},"properties":{"id":"1238","name":"Guilloux Lorient","terminus":[],"limits":["06:39:00","22:01:00"],"lines":["0011,1","0054,1","0055,1","0056,1"]}},{"type":"Feature","geometry":{"type":"Point","coordinates":[-1.694247,48.108237]},"properties":{"id":"1239","name":"Chèques Postaux","terminus":[],"limits":["06:17:00","23:50:00"],"lines":["0004,1","0011,1","0053,1","0054,1","0055,1","0056,1","0121,1"]}},{"type":"Feature","geometry":{"type":"Point","coordinates":[-1.689587,48.109271]},"properties":{"id":"1240","name":"Le Mail","terminus":[],"limits":["06:18:00","23:51:00"],"lines":["0004,1","0011,1","0121,1"]}},{"type":"Feature","geometry":{"type":"Point","coordinates":[-1.679532,48.109758]},"properties":{"id":"1242","name":"République","terminus":["0011,1"],"limits":["06:45:00","22:30:00"],"lines":["0011,1","0054,1","0055,1","0056,1"]}},{"type":"Feature","geometry":{"type":"Point","coordinates":[-1.661094,48.102515]},"properties":{"id":"1243","name":"Croix Saint-Hélier","terminus":[],"limits":["06:31:00","23:52:00"],"lines":["0002,0","0011,1","0001,0"]}},{"type":"Feature","geometry":{"type":"Point","coordinates":[-1.655063,48.102217]},"properties":{"id":"1244","name":"Mouézy","terminus":[],"limits":["06:53:00","22:39:00"],"lines":["0011,1"]}},{"type":"Feature","geometry":{"type":"Point","coordinates":[-1.652536,48.103213]},"properties":{"id":"1245","name":"Serpette","terminus":[],"limits":["06:14:00","22:13:00"],"lines":["0011,0"]}},{"type":"Feature","geometry":{"type":"Point","coordinates":[-1.64928,48.104353]},"properties":{"id":"1246","name":"Cimetière de l'Est","terminus":[],"limits":["06:54:00","22:41:00"],"lines":["0011,1"]}},{"type":"Feature","geometry":{"type":"Point","coordinates":[-1.643656,48.104868]},"properties":{"id":"1247","name":"Pavie","terminus":[],"limits":["06:55:00","22:42:00"],"lines":["0011,1"]}},{"type":"Feature","geometry":{"type":"Point","coordinates":[-1.635839,48.103911]},"properties":{"id":"1248","name":"Pré Garel","terminus":[],"limits":[null,null],"lines":["0011,1"]}},{"type":"Feature","geometry":{"type":"Point","coordinates":[-1.66602,48.138782]},"properties":{"id":"1252","name":"Patton","terminus":["0005,1"],"limits":["06:05:00","23:37:00"],"lines":["0005,1","0005,0"]}},{"type":"Feature","geometry":{"type":"Point","coordinates":[-1.667527,48.136711]},"properties":{"id":"1253","name":"Monts d'Arrée","terminus":[],"limits":["06:06:00","23:38:00"],"lines":["0014,0","0005,0"]}},{"type":"Feature","geometry":{"type":"Point","coordinates":[-1.671078,48.136796]},"properties":{"id":"1254","name":"Neruda","terminus":[],"limits":["06:06:00","23:38:00"],"lines":["0014,0","0005,0"]}},{"type":"Feature","geometry":{"type":"Point","coordinates":[-1.673097,48.134477]},"properties":{"id":"1255","name":"Condate","terminus":[],"limits":["06:07:00","23:39:00"],"lines":["0014,0","0005,0","0036,0"]}},{"type":"Feature","geometry":{"type":"Point","coordinates":[-1.671614,48.132591]},"properties":{"id":"1256","name":"Bellangerais","terminus":[],"limits":["06:08:00","23:40:00"],"lines":["0005,0"]}},{"type":"Feature","geometry":{"type":"Point","coordinates":[-1.667599,48.13267]},"properties":{"id":"1257","name":"Morbihan","terminus":[],"limits":["06:09:00","23:41:00"],"lines":["0005,0"]}},{"type":"Feature","geometry":{"type":"Point","coordinates":[-1.663953,48.130788]},"properties":{"id":"1258","name":"Houx Cité U","terminus":[],"limits":["06:10:00","23:42:00"],"lines":["0005,0"]}},{"type":"Feature","geometry":{"type":"Point","coordinates":[-1.663592,48.129452]},"properties":{"id":"1259","name":"Rochester","terminus":[],"limits":["06:11:00","23:43:00"],"lines":["0005,0"]}},{"type":"Feature","geometry":{"type":"Point","coordinates":[-1.665432,48.126715]},"properties":{"id":"1260","name":"Gros Chêne","terminus":[],"limits":["06:12:00","23:44:00"],"lines":["0005,0","0051,0"]}},{"type":"Feature","geometry":{"type":"Point","coordinates":[-1.666645,48.125322]},"properties":{"id":"1261","name":"Volney","terminus":[],"limits":["06:12:00","23:44:00"],"lines":["0005,0","0051,0"]}},{"type":"Feature","geometry":{"type":"Point","coordinates":[-1.67097,48.121471]},"properties":{"id":"1262","name":"Jules Ferry","terminus":[],"limits":["06:14:00","23:46:00"],"lines":["0005,0"]}},{"type":"Feature","geometry":{"type":"Point","coordinates":[-1.674316,48.119629]},"properties":{"id":"1263","name":"Rectorat","terminus":[],"limits":["06:15:00","23:47:00"],"lines":["0005,0"]}},{"type":"Feature","geometry":{"type":"Point","coordinates":[-1.684417,48.10206]},"properties":{"id":"1264","name":"Pont de Nantes","terminus":[],"limits":["05:50:00","23:50:00"],"lines":["0005,0","0057,0"]}},{"type":"Feature","geometry":{"type":"Point","coordinates":[-1.687123,48.099809]},"properties":{"id":"1265","name":"Foyer Rennais","terminus":[],"limits":["05:50:00","23:50:00"],"lines":["0005,0","0063,0","0057,0"]}},{"type":"Feature","geometry":{"type":"Point","coordinates":[-1.689057,48.09714]},"properties":{"id":"1266","name":"Mermoz","terminus":[],"limits":["06:34:00","23:42:00"],"lines":["0005,0"]}},{"type":"Feature","geometry":{"type":"Point","coordinates":[-1.693903,48.085707]},"properties":{"id":"1267","name":"Félix Eboué","terminus":[],"limits":["06:31:00","23:46:00"],"lines":["0005,0","0072,1","0059,1"]}},{"type":"Feature","geometry":{"type":"Point","coordinates":[-1.693637,48.083743]},"properties":{"id":"1268","name":"Boberil","terminus":[],"limits":["06:37:00","23:47:00"],"lines":["0005,0"]}},{"type":"Feature","geometry":{"type":"Point","coordinates":[-1.692043,48.084081]},"properties":{"id":"1269","name":"Lycée Bréquigny","terminus":["0005,0"],"limits":["06:10:00","23:49:00"],"lines":["0005,1","0005,0"]}},{"type":"Feature","geometry":{"type":"Point","coordinates":[-1.694039,48.085811]},"properties":{"id":"1270","name":"Félix Eboué","terminus":[],"limits":["06:10:00","23:50:00"],"lines":["0005,1","0072,0","0059,0"]}},{"type":"Feature","geometry":{"type":"Point","coordinates":[-1.6912,48.092735]},"properties":{"id":"1273","name":"Saint-Yves","terminus":[],"limits":["06:14:00","23:53:00"],"lines":["0005,1","0063,1"]}},{"type":"Feature","geometry":{"type":"Point","coordinates":[-1.689979,48.095038]},"properties":{"id":"1274","name":"Pilate","terminus":[],"limits":["06:14:00","23:54:00"],"lines":["0005,1"]}},{"type":"Feature","geometry":{"type":"Point","coordinates":[-1.688573,48.097422]},"properties":{"id":"1275","name":"Mermoz","terminus":[],"limits":["06:15:00","23:55:00"],"lines":["0005,1"]}},{"type":"Feature","geometry":{"type":"Point","coordinates":[-1.68619,48.099714]},"properties":{"id":"1276","name":"Foyer Rennais","terminus":[],"limits":["06:13:00","23:56:00"],"lines":["0005,1","0063,1","0057,1"]}},{"type":"Feature","geometry":{"type":"Point","coordinates":[-1.684092,48.102127]},"properties":{"id":"1277","name":"Pont de Nantes","terminus":[],"limits":["06:14:00","23:57:00"],"lines":["0005,1","0057,1"]}},{"type":"Feature","geometry":{"type":"Point","coordinates":[-1.677806,48.117082]},"properties":{"id":"1278","name":"Hôtel Dieu","terminus":[],"limits":["06:29:00","23:49:00"],"lines":["0005,1","0051,1"]}},{"type":"Feature","geometry":{"type":"Point","coordinates":[-1.674371,48.119451]},"properties":{"id":"1279","name":"Rectorat","terminus":[],"limits":["06:30:00","23:50:00"],"lines":["0005,1","0036,1","0051,1"]}},{"type":"Feature","geometry":{"type":"Point","coordinates":[-1.670825,48.121404]},"properties":{"id":"1280","name":"Jules Ferry","terminus":[],"limits":["06:31:00","23:51:00"],"lines":["0005,1","0036,1","0051,1"]}},{"type":"Feature","geometry":{"type":"Point","coordinates":[-1.66626,48.125362]},"properties":{"id":"1281","name":"Volney","terminus":[],"limits":["06:33:00","23:53:00"],"lines":["0005,1","0051,1"]}},{"type":"Feature","geometry":{"type":"Point","coordinates":[-1.665268,48.126594]},"properties":{"id":"1282","name":"Gros Chêne","terminus":[],"limits":["06:33:00","23:54:00"],"lines":["0005,1","0051,1"]}},{"type":"Feature","geometry":{"type":"Point","coordinates":[-1.663763,48.128831]},"properties":{"id":"1283","name":"Rochester","terminus":[],"limits":["06:34:00","23:55:00"],"lines":["0005,1"]}},{"type":"Feature","geometry":{"type":"Point","coordinates":[-1.664397,48.131091]},"properties":{"id":"1284","name":"Houx Cité U","terminus":[],"limits":["06:35:00","23:56:00"],"lines":["0005,1"]}},{"type":"Feature","geometry":{"type":"Point","coordinates":[-1.667609,48.132827]},"properties":{"id":"1285","name":"Morbihan","terminus":[],"limits":["06:36:00","23:57:00"],"lines":["0005,1"]}},{"type":"Feature","geometry":{"type":"Point","coordinates":[-1.672293,48.132719]},"properties":{"id":"1286","name":"Bellangerais","terminus":[],"limits":["06:36:00","23:58:00"],"lines":["0005,1"]}},{"type":"Feature","geometry":{"type":"Point","coordinates":[-1.672781,48.135006]},"properties":{"id":"1287","name":"Condate","terminus":[],"limits":["06:37:00","23:59:00"],"lines":["0014,1","0005,1","0036,1"]}},{"type":"Feature","geometry":{"type":"Point","coordinates":[-1.670632,48.136641]},"properties":{"id":"1288","name":"Neruda","terminus":[],"limits":["06:38:00","23:59:00"],"lines":["0014,1","0005,1"]}},{"type":"Feature","geometry":{"type":"Point","coordinates":[-1.667527,48.136539]},"properties":{"id":"1289","name":"Monts d'Arrée","terminus":[],"limits":["06:38:00","24:00:00"],"lines":["0014,1","0005,1"]}},{"type":"Feature","geometry":{"type":"Point","coordinates":[-1.633208,48.125147]},"properties":{"id":"1291","name":"IUT","terminus":[],"limits":["06:10:00","23:59:00"],"lines":["0014,0","0004,0","0121,0"]}},{"type":"Feature","geometry":{"type":"Point","coordinates":[-1.638194,48.121437]},"properties":{"id":"1292","name":"Beaulieu Restau U","terminus":[],"limits":["06:11:00","24:00:00"],"lines":["0004,0","0121,0"]}},{"type":"Feature","geometry":{"type":"Point","coordinates":[-1.698679,48.110001]},"properties":{"id":"1293","name":"Guilloux","terminus":[],"limits":["06:29:00","23:50:00"],"lines":["0004,0","0053,0","0121,0"]}},{"type":"Feature","geometry":{"type":"Point","coordinates":[-1.701301,48.111305]},"properties":{"id":"1294","name":"Marbeuf","terminus":[],"limits":["06:15:00","23:48:00"],"lines":["0004,1","0053,1","0121,1"]}},{"type":"Feature","geometry":{"type":"Point","coordinates":[-1.704608,48.116762]},"properties":{"id":"1295","name":"Berger","terminus":[],"limits":["06:33:00","23:54:00"],"lines":["0004,0","0121,0"]}},{"type":"Feature","geometry":{"type":"Point","coordinates":[-1.704499,48.119313]},"properties":{"id":"1296","name":"Université","terminus":[],"limits":["06:34:00","23:55:00"],"lines":["0004,0","0121,0"]}},{"type":"Feature","geometry":{"type":"Point","coordinates":[-1.703705,48.121918]},"properties":{"id":"1297","name":"Villejean-Université","terminus":[],"limits":["06:35:00","23:56:00"],"lines":["0014,1","0004,0","0068,1","0121,0"]}},{"type":"Feature","geometry":{"type":"Point","coordinates":[-1.703017,48.125698]},"properties":{"id":"1298","name":"Bois Labbé","terminus":[],"limits":["06:36:00","23:57:00"],"lines":["0014,1","0004,0","0121,0"]}},{"type":"Feature","geometry":{"type":"Point","coordinates":[-1.702753,48.127905]},"properties":{"id":"1299","name":"Olympe de Gouges","terminus":[],"limits":["06:37:00","23:58:00"],"lines":["0014,1","0004,0"]}},{"type":"Feature","geometry":{"type":"Point","coordinates":[-1.698884,48.128595]},"properties":{"id":"1300","name":"Cucillé","terminus":[],"limits":["06:07:00","23:40:00"],"lines":["0014,0","0004,1"]}},{"type":"Feature","geometry":{"type":"Point","coordinates":[-1.69398,48.128165]},"properties":{"id":"1301","name":"Préfecture - ESC","terminus":[],"limits":["06:38:00","24:00:00"],"lines":["0014,1","0004,0"]}},{"type":"Feature","geometry":{"type":"Point","coordinates":[-1.691785,48.131493]},"properties":{"id":"1302","name":"Léonard","terminus":[],"limits":["06:39:00","23:31:00"],"lines":["0004,0"]}},{"type":"Feature","geometry":{"type":"Point","coordinates":[-1.694114,48.128353]},"properties":{"id":"1303","name":"Préfecture - ESC","terminus":[],"limits":["06:06:00","23:39:00"],"lines":["0014,0","0004,1"]}},{"type":"Feature","geometry":{"type":"Point","coordinates":[-1.698712,48.128501]},"properties":{"id":"1304","name":"Cucillé","terminus":[],"limits":["06:37:00","23:59:00"],"lines":["0014,1","0004,0"]}},{"type":"Feature","geometry":{"type":"Point","coordinates":[-1.703293,48.127565]},"properties":{"id":"1305","name":"Olympe de Gouges","terminus":[],"limits":["06:08:00","23:41:00"],"lines":["0014,0","0004,1","0121,0","0121,1"]}},{"type":"Feature","geometry":{"type":"Point","coordinates":[-1.703189,48.12525]},"properties":{"id":"1306","name":"Bois Labbé","terminus":[],"limits":["06:09:00","23:42:00"],"lines":["0014,0","0004,1","0121,1"]}},{"type":"Feature","geometry":{"type":"Point","coordinates":[-1.703954,48.121755]},"properties":{"id":"1307","name":"Villejean-Université","terminus":[],"limits":["06:10:00","23:43:00"],"lines":["0014,0","0004,1","0121,1"]}},{"type":"Feature","geometry":{"type":"Point","coordinates":[-1.704736,48.118926]},"properties":{"id":"1308","name":"Université","terminus":[],"limits":["06:11:00","23:44:00"],"lines":["0004,1","0121,1"]}},{"type":"Feature","geometry":{"type":"Point","coordinates":[-1.704803,48.116745]},"properties":{"id":"1309","name":"Berger","terminus":[],"limits":["06:12:00","23:45:00"],"lines":["0004,1","0121,1"]}},{"type":"Feature","geometry":{"type":"Point","coordinates":[-1.700837,48.111292]},"properties":{"id":"1310","name":"Marbeuf","terminus":[],"limits":["06:30:00","23:51:00"],"lines":["0004,0","0053,0","0121,0"]}},{"type":"Feature","geometry":{"type":"Point","coordinates":[-1.698313,48.10957]},"properties":{"id":"1311","name":"Guilloux","terminus":[],"limits":["06:16:00","23:49:00"],"lines":["0004,1","0053,1","0121,1"]}},{"type":"Feature","geometry":{"type":"Point","coordinates":[-1.633944,48.116581]},"properties":{"id":"1312","name":"Beaulieu Chimie","terminus":[],"limits":["06:13:00","23:47:00"],"lines":["0004,0","0031,1","0121,0"]}},{"type":"Feature","geometry":{"type":"Point","coordinates":[-1.638248,48.121826]},"properties":{"id":"1313","name":"Beaulieu Restau U","terminus":[],"limits":["05:58:00","23:48:00"],"lines":["0004,1","0121,1"]}},{"type":"Feature","geometry":{"type":"Point","coordinates":[-1.632973,48.125106]},"properties":{"id":"1314","name":"IUT","terminus":[],"limits":["05:59:00","23:49:00"],"lines":["0014,1","0004,1","0121,1"]}},{"type":"Feature","geometry":{"type":"Point","coordinates":[-1.678048,48.109698]},"properties":{"id":"1315","name":"République","terminus":[],"limits":["06:22:00","24:00:00"],"lines":["0002,1","0072,0"]}},{"type":"Feature","geometry":{"type":"Point","coordinates":[-1.652938,48.101171]},"properties":{"id":"1316","name":"Raison","terminus":[],"limits":["06:34:00","23:45:00"],"lines":["0001,0"]}},{"type":"Feature","geometry":{"type":"Point","coordinates":[-1.649415,48.100101]},"properties":{"id":"1317","name":"Villebois-Mareuil","terminus":[],"limits":["06:35:00","23:46:00"],"lines":["0001,0"]}},{"type":"Feature","geometry":{"type":"Point","coordinates":[-1.646084,48.09913]},"properties":{"id":"1318","name":"Landry","terminus":[],"limits":["06:36:00","23:47:00"],"lines":["0001,0"]}},{"type":"Feature","geometry":{"type":"Point","coordinates":[-1.641653,48.097002]},"properties":{"id":"1319","name":"Domaine","terminus":[],"limits":["06:37:00","23:48:00"],"lines":["0001,0"]}},{"type":"Feature","geometry":{"type":"Point","coordinates":[-1.637296,48.094927]},"properties":{"id":"1320","name":"CARSAT","terminus":[],"limits":["06:38:00","23:49:00"],"lines":["0001,0"]}},{"type":"Feature","geometry":{"type":"Point","coordinates":[-1.633778,48.093777]},"properties":{"id":"1321","name":"Sauvaie","terminus":[],"limits":["06:39:00","23:50:00"],"lines":["0001,0"]}},{"type":"Feature","geometry":{"type":"Point","coordinates":[-1.634589,48.094297]},"properties":{"id":"1322","name":"Sauvaie","terminus":[],"limits":["06:09:00","23:18:00"],"lines":["0001,1"]}},{"type":"Feature","geometry":{"type":"Point","coordinates":[-1.638069,48.095474]},"properties":{"id":"1323","name":"CARSAT","terminus":[],"limits":["06:10:00","23:19:00"],"lines":["0001,1"]}},{"type":"Feature","geometry":{"type":"Point","coordinates":[-1.642447,48.09768]},"properties":{"id":"1324","name":"Domaine","terminus":[],"limits":["06:11:00","23:20:00"],"lines":["0001,1"]}},{"type":"Feature","geometry":{"type":"Point","coordinates":[-1.646682,48.099472]},"properties":{"id":"1325","name":"Landry","terminus":[],"limits":["06:12:00","23:21:00"],"lines":["0001,1"]}},{"type":"Feature","geometry":{"type":"Point","coordinates":[-1.65357,48.101402]},"properties":{"id":"1327","name":"Raison","terminus":[],"limits":["06:13:00","23:22:00"],"lines":["0001,1"]}},{"type":"Feature","geometry":{"type":"Point","coordinates":[-1.685223,48.132919]},"properties":{"id":"1328","name":"Lycée Mendès France","terminus":[],"limits":["06:10:00","23:24:00"],"lines":["0014,1","0002,0","0012,0"]}},{"type":"Feature","geometry":{"type":"Point","coordinates":[-1.683279,48.12158]},"properties":{"id":"1329","name":"Lenoir","terminus":[],"limits":["06:15:00","22:18:00"],"lines":["0012,0"]}},{"type":"Feature","geometry":{"type":"Point","coordinates":[-1.681603,48.120357]},"properties":{"id":"1330","name":"Auberge de Jeunesse","terminus":[],"limits":["06:15:00","22:19:00"],"lines":["0012,0"]}},{"type":"Feature","geometry":{"type":"Point","coordinates":[-1.680797,48.118043]},"properties":{"id":"1331","name":"Square de la Rance","terminus":[],"limits":["06:16:00","22:20:00"],"lines":["0012,0"]}},{"type":"Feature","geometry":{"type":"Point","coordinates":[-1.675165,48.097824]},"properties":{"id":"1333","name":"Jacques Cartier","terminus":[],"limits":["06:16:00","23:35:00"],"lines":["0003,1","0012,1","0122,1"]}},{"type":"Feature","geometry":{"type":"Point","coordinates":[-1.6713,48.097716]},"properties":{"id":"1334","name":"Châtillon","terminus":[],"limits":["06:31:00","22:36:00"],"lines":["0012,0"]}},{"type":"Feature","geometry":{"type":"Point","coordinates":[-1.6684,48.097705]},"properties":{"id":"1335","name":"Ormeaux","terminus":[],"limits":["06:32:00","22:37:00"],"lines":["0012,0"]}},{"type":"Feature","geometry":{"type":"Point","coordinates":[-1.666405,48.097982]},"properties":{"id":"1336","name":"Bigot de Préameneu","terminus":[],"limits":["06:32:00","22:37:00"],"lines":["0012,0"]}},{"type":"Feature","geometry":{"type":"Point","coordinates":[-1.66289,48.097532]},"properties":{"id":"1337","name":"Sainte-Thérèse","terminus":[],"limits":["06:33:00","22:38:00"],"lines":["0012,0"]}},{"type":"Feature","geometry":{"type":"Point","coordinates":[-1.661622,48.09502]},"properties":{"id":"1338","name":"Leray","terminus":[],"limits":["06:34:00","22:39:00"],"lines":["0012,0"]}},{"type":"Feature","geometry":{"type":"Point","coordinates":[-1.658629,48.094676]},"properties":{"id":"1339","name":"Langevin","terminus":[],"limits":["06:35:00","22:40:00"],"lines":["0012,0"]}},{"type":"Feature","geometry":{"type":"Point","coordinates":[-1.658498,48.091996]},"properties":{"id":"1340","name":"Gide","terminus":[],"limits":["06:35:00","22:41:00"],"lines":["0012,0"]}},{"type":"Feature","geometry":{"type":"Point","coordinates":[-1.654578,48.091222]},"properties":{"id":"1341","name":"Landrel","terminus":[],"limits":["06:36:00","22:42:00"],"lines":["0012,0"]}},{"type":"Feature","geometry":{"type":"Point","coordinates":[-1.651756,48.091175]},"properties":{"id":"1342","name":"Pologne","terminus":[],"limits":["06:37:00","22:42:00"],"lines":["0012,0"]}},{"type":"Feature","geometry":{"type":"Point","coordinates":[-1.645966,48.087643]},"properties":{"id":"1343","name":"La Poterie","terminus":["0012,0"],"limits":["06:08:00","22:45:00"],"lines":["0012,0","0012,1"]}},{"type":"Feature","geometry":{"type":"Point","coordinates":[-1.650088,48.0877]},"properties":{"id":"1344","name":"Galicie","terminus":[],"limits":["06:09:00","21:49:00"],"lines":["0013,0","0012,1","0122,1"]}},{"type":"Feature","geometry":{"type":"Point","coordinates":[-1.655211,48.084724]},"properties":{"id":"1346","name":"Hôpital Sud","terminus":[],"limits":["07:16:00","20:31:00"],"lines":["0013,0","0122,1"]}},{"type":"Feature","geometry":{"type":"Point","coordinates":[-1.657925,48.084769]},"properties":{"id":"1347","name":"Torigné","terminus":[],"limits":["07:16:00","20:32:00"],"lines":["0013,0"]}},{"type":"Feature","geometry":{"type":"Point","coordinates":[-1.657962,48.084535]},"properties":{"id":"1353","name":"Torigné","terminus":[],"limits":["07:29:00","20:57:00"],"lines":["0013,1"]}},{"type":"Feature","geometry":{"type":"Point","coordinates":[-1.649853,48.087458]},"properties":{"id":"1356","name":"Galicie","terminus":[],"limits":["06:38:00","22:43:00"],"lines":["0013,1","0012,0","0122,0"]}},{"type":"Feature","geometry":{"type":"Point","coordinates":[-1.651912,48.091419]},"properties":{"id":"1358","name":"Pologne","terminus":[],"limits":["06:10:00","21:51:00"],"lines":["0012,1"]}},{"type":"Feature","geometry":{"type":"Point","coordinates":[-1.655599,48.091479]},"properties":{"id":"1359","name":"Landrel","terminus":[],"limits":["06:10:00","21:52:00"],"lines":["0012,1"]}},{"type":"Feature","geometry":{"type":"Point","coordinates":[-1.658308,48.092518]},"properties":{"id":"1360","name":"Gide","terminus":[],"limits":["06:11:00","21:53:00"],"lines":["0012,1"]}},{"type":"Feature","geometry":{"type":"Point","coordinates":[-1.658163,48.094222]},"properties":{"id":"1361","name":"Langevin","terminus":[],"limits":["06:12:00","21:54:00"],"lines":["0012,1"]}},{"type":"Feature","geometry":{"type":"Point","coordinates":[-1.661464,48.095014]},"properties":{"id":"1362","name":"Leray","terminus":[],"limits":["06:12:00","21:54:00"],"lines":["0012,1"]}},{"type":"Feature","geometry":{"type":"Point","coordinates":[-1.662555,48.097427]},"properties":{"id":"1363","name":"Sainte-Thérèse","terminus":[],"limits":["06:13:00","21:55:00"],"lines":["0012,1"]}},{"type":"Feature","geometry":{"type":"Point","coordinates":[-1.667094,48.098048]},"properties":{"id":"1364","name":"Bigot de Préameneu","terminus":[],"limits":["06:14:00","21:56:00"],"lines":["0012,1"]}},{"type":"Feature","geometry":{"type":"Point","coordinates":[-1.669245,48.097759]},"properties":{"id":"1365","name":"Ormeaux","terminus":[],"limits":["06:15:00","21:57:00"],"lines":["0012,1"]}},{"type":"Feature","geometry":{"type":"Point","coordinates":[-1.67092,48.097797]},"properties":{"id":"1366","name":"Châtillon","terminus":[],"limits":["06:15:00","21:57:00"],"lines":["0012,1"]}},{"type":"Feature","geometry":{"type":"Point","coordinates":[-1.679517,48.111022]},"properties":{"id":"1367","name":"Rennes Mairie","terminus":[],"limits":["06:27:00","22:31:00"],"lines":["0012,1"]}},{"type":"Feature","geometry":{"type":"Point","coordinates":[-1.680513,48.118322]},"properties":{"id":"1368","name":"Square de la Rance","terminus":[],"limits":["06:34:00","22:37:00"],"lines":["0012,1"]}},{"type":"Feature","geometry":{"type":"Point","coordinates":[-1.68102,48.120269]},"properties":{"id":"1369","name":"Auberge de Jeunesse","terminus":[],"limits":["06:35:00","22:38:00"],"lines":["0012,1"]}},{"type":"Feature","geometry":{"type":"Point","coordinates":[-1.683469,48.121947]},"properties":{"id":"1370","name":"Lenoir","terminus":[],"limits":["06:36:00","22:39:00"],"lines":["0012,1"]}},{"type":"Feature","geometry":{"type":"Point","coordinates":[-1.685105,48.133246]},"properties":{"id":"1371","name":"Lycée Mendès France","terminus":[],"limits":["06:38:00","23:53:00"],"lines":["0014,0","0002,1","0012,1"]}},{"type":"Feature","geometry":{"type":"Point","coordinates":[-1.659181,48.138364]},"properties":{"id":"1372","name":"Saint-Laurent","terminus":["0009,1"],"limits":["06:05:00","23:37:00"],"lines":["0009,0","0009,1"]}},{"type":"Feature","geometry":{"type":"Point","coordinates":[-1.65936,48.135248]},"properties":{"id":"1373","name":"Hôtel de Région","terminus":[],"limits":["06:38:00","23:34:00"],"lines":["0003,1","0009,1"]}},{"type":"Feature","geometry":{"type":"Point","coordinates":[-1.65696,48.133162]},"properties":{"id":"1374","name":"Longs Prés","terminus":[],"limits":["06:07:00","23:39:00"],"lines":["0014,1","0009,0"]}},{"type":"Feature","geometry":{"type":"Point","coordinates":[-1.656511,48.129955]},"properties":{"id":"1375","name":"Gast","terminus":[],"limits":["06:09:00","23:40:00"],"lines":["0014,1","0009,0"]}},{"type":"Feature","geometry":{"type":"Point","coordinates":[-1.657192,48.128579]},"properties":{"id":"1376","name":"Europe","terminus":[],"limits":["06:09:00","23:41:00"],"lines":["0014,1","0009,0"]}},{"type":"Feature","geometry":{"type":"Point","coordinates":[-1.65857,48.126826]},"properties":{"id":"1377","name":"Trégain","terminus":[],"limits":["06:10:00","23:42:00"],"lines":["0014,1","0009,0"]}},{"type":"Feature","geometry":{"type":"Point","coordinates":[-1.661615,48.12477]},"properties":{"id":"1378","name":"Saint-Exupéry","terminus":[],"limits":["06:11:00","23:43:00"],"lines":["0014,1","0009,0"]}},{"type":"Feature","geometry":{"type":"Point","coordinates":[-1.696468,48.105128]},"properties":{"id":"1381","name":"Malakoff","terminus":[],"limits":["06:32:00","23:38:00"],"lines":["0009,0"]}},{"type":"Feature","geometry":{"type":"Point","coordinates":[-1.698818,48.105074]},"properties":{"id":"1382","name":"Voltaire","terminus":[],"limits":["06:13:00","23:56:00"],"lines":["0009,1"]}},{"type":"Feature","geometry":{"type":"Point","coordinates":[-1.700048,48.103589]},"properties":{"id":"1383","name":"Dargent","terminus":[],"limits":["06:12:00","23:55:00"],"lines":["0009,1"]}},{"type":"Feature","geometry":{"type":"Point","coordinates":[-1.703856,48.102651]},"properties":{"id":"1384","name":"Champion de Cicé","terminus":[],"limits":["06:34:00","23:41:00"],"lines":["0009,0"]}},{"type":"Feature","geometry":{"type":"Point","coordinates":[-1.707006,48.100655]},"properties":{"id":"1385","name":"De Lesseps","terminus":[],"limits":["06:35:00","23:42:00"],"lines":["0013,1","0009,0"]}},{"type":"Feature","geometry":{"type":"Point","coordinates":[-1.705488,48.098922]},"properties":{"id":"1386","name":"Guérinais","terminus":[],"limits":["06:35:00","23:43:00"],"lines":["0013,1","0009,0"]}},{"type":"Feature","geometry":{"type":"Point","coordinates":[-1.708181,48.098044]},"properties":{"id":"1387","name":"Récipon","terminus":[],"limits":["06:36:00","23:44:00"],"lines":["0009,0"]}},{"type":"Feature","geometry":{"type":"Point","coordinates":[-1.711217,48.099353]},"properties":{"id":"1388","name":"Montand","terminus":[],"limits":["06:07:00","23:50:00"],"lines":["0009,1"]}},{"type":"Feature","geometry":{"type":"Point","coordinates":[-1.71181,48.101249]},"properties":{"id":"1389","name":"Clinique La Sagesse","terminus":[],"limits":["06:38:00","23:46:00"],"lines":["0013,0","0009,0"]}},{"type":"Feature","geometry":{"type":"Point","coordinates":[-1.713394,48.104175]},"properties":{"id":"1390","name":"Cleunay","terminus":["0013,0","0009,0"],"limits":["06:05:00","23:48:00"],"lines":["0013,1","0013,0","0009,0","0009,1"]}},{"type":"Feature","geometry":{"type":"Point","coordinates":[-1.711799,48.101056]},"properties":{"id":"1391","name":"Clinique La Sagesse","terminus":[],"limits":["06:07:00","23:50:00"],"lines":["0013,1","0009,1"]}},{"type":"Feature","geometry":{"type":"Point","coordinates":[-1.711154,48.099871]},"properties":{"id":"1392","name":"Montand","terminus":[],"limits":["06:37:00","23:45:00"],"lines":["0009,0"]}},{"type":"Feature","geometry":{"type":"Point","coordinates":[-1.707641,48.097814]},"properties":{"id":"1393","name":"Récipon","terminus":[],"limits":["06:08:00","23:51:00"],"lines":["0009,1"]}},{"type":"Feature","geometry":{"type":"Point","coordinates":[-1.705513,48.099043]},"properties":{"id":"1394","name":"Guérinais","terminus":[],"limits":["06:09:00","23:52:00"],"lines":["0013,0","0009,1"]}},{"type":"Feature","geometry":{"type":"Point","coordinates":[-1.706956,48.101013]},"properties":{"id":"1395","name":"De Lesseps","terminus":[],"limits":["06:10:00","23:53:00"],"lines":["0013,0","0009,1"]}},{"type":"Feature","geometry":{"type":"Point","coordinates":[-1.705063,48.102182]},"properties":{"id":"1396","name":"Champion de Cicé","terminus":[],"limits":["06:11:00","23:54:00"],"lines":["0009,1"]}},{"type":"Feature","geometry":{"type":"Point","coordinates":[-1.700369,48.103598]},"properties":{"id":"1397","name":"Dargent","terminus":[],"limits":["06:33:00","23:40:00"],"lines":["0009,0"]}},{"type":"Feature","geometry":{"type":"Point","coordinates":[-1.698672,48.105225]},"properties":{"id":"1398","name":"Voltaire","terminus":[],"limits":["06:32:00","23:39:00"],"lines":["0009,0"]}},{"type":"Feature","geometry":{"type":"Point","coordinates":[-1.69546,48.105015]},"properties":{"id":"1399","name":"Malakoff","terminus":[],"limits":["06:14:00","23:57:00"],"lines":["0009,1"]}},{"type":"Feature","geometry":{"type":"Point","coordinates":[-1.687728,48.105574]},"properties":{"id":"1401","name":"Redon","terminus":[],"limits":["06:16:00","24:00:00"],"lines":["0009,1","0006,1"]}},{"type":"Feature","geometry":{"type":"Point","coordinates":[-1.685188,48.105647]},"properties":{"id":"1402","name":"Cité Judiciaire","terminus":[],"limits":["06:28:00","23:59:00"],"lines":["0009,0","0006,0"]}},{"type":"Feature","geometry":{"type":"Point","coordinates":[-1.66096,48.125211]},"properties":{"id":"1403","name":"Saint-Exupéry","terminus":[],"limits":["06:34:00","24:00:00"],"lines":["0014,0","0009,1","0122,1"]}},{"type":"Feature","geometry":{"type":"Point","coordinates":[-1.658487,48.126712]},"properties":{"id":"1404","name":"Trégain","terminus":[],"limits":["06:35:00","24:00:00"],"lines":["0014,0","0009,1","0122,1"]}},{"type":"Feature","geometry":{"type":"Point","coordinates":[-1.657061,48.128416]},"properties":{"id":"1405","name":"Europe","terminus":[],"limits":["06:36:00","23:31:00"],"lines":["0014,0","0009,1","0122,1"]}},{"type":"Feature","geometry":{"type":"Point","coordinates":[-1.656412,48.130263]},"properties":{"id":"1406","name":"Gast","terminus":[],"limits":["06:37:00","23:32:00"],"lines":["0014,0","0009,1","0122,1"]}},{"type":"Feature","geometry":{"type":"Point","coordinates":[-1.656626,48.133129]},"properties":{"id":"1407","name":"Longs Prés","terminus":[],"limits":["06:37:00","23:33:00"],"lines":["0014,0","0009,1"]}},{"type":"Feature","geometry":{"type":"Point","coordinates":[-1.662483,48.136512]},"properties":{"id":"1410","name":"Hélias","terminus":[],"limits":["07:12:00","20:44:00"],"lines":["0014,0"]}},{"type":"Feature","geometry":{"type":"Point","coordinates":[-1.67291,48.132111]},"properties":{"id":"1411","name":"Bellangerais","terminus":[],"limits":["07:15:00","20:48:00"],"lines":["0014,0","0036,0"]}},{"type":"Feature","geometry":{"type":"Point","coordinates":[-1.707774,48.1214]},"properties":{"id":"1412","name":"Cours Kennedy","terminus":[],"limits":["05:58:00","22:00:00"],"lines":["0014,0","0012,0"]}},{"type":"Feature","geometry":{"type":"Point","coordinates":[-1.707954,48.118607]},"properties":{"id":"1413","name":"Villejean-Churchill","terminus":[],"limits":["07:22:00","21:22:00"],"lines":["0014,1"]}},{"type":"Feature","geometry":{"type":"Point","coordinates":[-1.712265,48.116416]},"properties":{"id":"1414","name":"Merlin","terminus":[],"limits":["07:32:00","21:06:00"],"lines":["0014,0","0053,0"]}},{"type":"Feature","geometry":{"type":"Point","coordinates":[-1.712864,48.111171]},"properties":{"id":"1417","name":"Les Arts","terminus":[],"limits":["07:16:00","21:16:00"],"lines":["0014,1"]}},{"type":"Feature","geometry":{"type":"Point","coordinates":[-1.710162,48.109104]},"properties":{"id":"1418","name":"Géniaux","terminus":[],"limits":["07:16:00","21:16:00"],"lines":["0014,1"]}},{"type":"Feature","geometry":{"type":"Point","coordinates":[-1.713382,48.111433]},"properties":{"id":"1419","name":"Les Arts","terminus":[],"limits":["07:35:00","21:11:00"],"lines":["0014,0"]}},{"type":"Feature","geometry":{"type":"Point","coordinates":[-1.715503,48.114636]},"properties":{"id":"1421","name":"Chambre Agriculture","terminus":[],"limits":["07:34:00","21:08:00"],"lines":["0014,0"]}},{"type":"Feature","geometry":{"type":"Point","coordinates":[-1.711309,48.116261]},"properties":{"id":"1422","name":"Merlin","terminus":[],"limits":["07:11:00","21:20:00"],"lines":["0014,1","0053,1"]}},{"type":"Feature","geometry":{"type":"Point","coordinates":[-1.70816,48.118508]},"properties":{"id":"1423","name":"Villejean-Churchill","terminus":[],"limits":["07:30:00","21:04:00"],"lines":["0014,0"]}},{"type":"Feature","geometry":{"type":"Point","coordinates":[-1.70795,48.121238]},"properties":{"id":"1424","name":"Cours Kennedy","terminus":[],"limits":["06:52:00","22:56:00"],"lines":["0014,1","0012,1"]}},{"type":"Feature","geometry":{"type":"Point","coordinates":[-1.682448,48.128]},"properties":{"id":"1425","name":"Trois Croix","terminus":[],"limits":["07:35:00","21:35:00"],"lines":["0014,1"]}},{"type":"Feature","geometry":{"type":"Point","coordinates":[-1.672635,48.132124]},"properties":{"id":"1426","name":"Bellangerais","terminus":[],"limits":["07:37:00","21:37:00"],"lines":["0014,1","0036,1"]}},{"type":"Feature","geometry":{"type":"Point","coordinates":[-1.663348,48.136404]},"properties":{"id":"1427","name":"Hélias","terminus":[],"limits":["07:41:00","21:41:00"],"lines":["0014,1"]}},{"type":"Feature","geometry":{"type":"Point","coordinates":[-1.658625,48.134522]},"properties":{"id":"1428","name":"Hôtel de Région","terminus":[],"limits":["07:11:00","20:43:00"],"lines":["0014,0"]}},{"type":"Feature","geometry":{"type":"Point","coordinates":[-1.649907,48.118769]},"properties":{"id":"1432","name":"Vitré Foulon","terminus":[],"limits":["07:20:00","20:38:00"],"lines":["0064,0","0050,0"]}},{"type":"Feature","geometry":{"type":"Point","coordinates":[-1.65655,48.113595]},"properties":{"id":"1433","name":"Durafour Strasbourg","terminus":[],"limits":["07:06:00","20:46:00"],"lines":["0067,1"]}},{"type":"Feature","geometry":{"type":"Point","coordinates":[-1.653923,48.087647]},"properties":{"id":"1440","name":"Le Blosne","terminus":[],"limits":["07:14:00","20:30:00"],"lines":["0013,0","0122,1"]}},{"type":"Feature","geometry":{"type":"Point","coordinates":[-1.660855,48.08608]},"properties":{"id":"1441","name":"Triangle","terminus":[],"limits":["06:40:00","21:11:00"],"lines":["0013,0","0061,1","0122,1"]}},{"type":"Feature","geometry":{"type":"Point","coordinates":[-1.66733,48.091639]},"properties":{"id":"1442","name":"Binquenais","terminus":[],"limits":["07:21:00","20:36:00"],"lines":["0013,0"]}},{"type":"Feature","geometry":{"type":"Point","coordinates":[-1.662448,48.091624]},"properties":{"id":"1443","name":"Binquenais Collège","terminus":[],"limits":["07:19:00","20:35:00"],"lines":["0013,0"]}},{"type":"Feature","geometry":{"type":"Point","coordinates":[-1.66964,48.093622]},"properties":{"id":"1444","name":"Combes","terminus":[],"limits":["07:22:00","20:37:00"],"lines":["0013,0"]}},{"type":"Feature","geometry":{"type":"Point","coordinates":[-1.674668,48.093147]},"properties":{"id":"1445","name":"Clemenceau","terminus":[],"limits":["07:23:00","20:38:00"],"lines":["0013,0","0122,0"]}},{"type":"Feature","geometry":{"type":"Point","coordinates":[-1.674997,48.089583]},"properties":{"id":"1446","name":"Argonautes","terminus":[],"limits":["07:24:00","20:39:00"],"lines":["0013,0","0122,0"]}},{"type":"Feature","geometry":{"type":"Point","coordinates":[-1.675075,48.08721]},"properties":{"id":"1447","name":"Henri Fréville","terminus":[],"limits":["07:25:00","20:40:00"],"lines":["0013,0","0122,0"]}},{"type":"Feature","geometry":{"type":"Point","coordinates":[-1.683079,48.086865]},"properties":{"id":"1449","name":"Norvège","terminus":[],"limits":["06:07:00","20:53:00"],"lines":["0013,0","0072,0","0059,0"]}},{"type":"Feature","geometry":{"type":"Point","coordinates":[-1.688453,48.08669]},"properties":{"id":"1450","name":"Coubertin","terminus":[],"limits":["06:09:00","20:54:00"],"lines":["0013,0","0072,0","0059,0"]}},{"type":"Feature","geometry":{"type":"Point","coordinates":[-1.691262,48.086857]},"properties":{"id":"1451","name":"Lycée Bréquigny","terminus":[],"limits":["07:30:00","20:46:00"],"lines":["0013,0"]}},{"type":"Feature","geometry":{"type":"Point","coordinates":[-1.690987,48.089851]},"properties":{"id":"1452","name":"Bréquigny Piscine","terminus":[],"limits":["07:31:00","20:47:00"],"lines":["0013,0"]}},{"type":"Feature","geometry":{"type":"Point","coordinates":[-1.692985,48.089768]},"properties":{"id":"1453","name":"Pigeon Blanc","terminus":[],"limits":["06:13:00","23:52:00"],"lines":["0005,1"]}},{"type":"Feature","geometry":{"type":"Point","coordinates":[-1.691241,48.089581]},"properties":{"id":"1454","name":"Bréquigny Piscine","terminus":[],"limits":["07:14:00","20:40:00"],"lines":["0013,1"]}},{"type":"Feature","geometry":{"type":"Point","coordinates":[-1.691043,48.086702]},"properties":{"id":"1455","name":"Lycée Bréquigny","terminus":[],"limits":["07:15:00","20:41:00"],"lines":["0013,1"]}},{"type":"Feature","geometry":{"type":"Point","coordinates":[-1.687451,48.086541]},"properties":{"id":"1456","name":"Coubertin","terminus":[],"limits":["06:33:00","21:48:00"],"lines":["0013,1","0072,1","0059,1"]}},{"type":"Feature","geometry":{"type":"Point","coordinates":[-1.683887,48.086765]},"properties":{"id":"1457","name":"Norvège","terminus":[],"limits":["06:34:00","21:49:00"],"lines":["0013,1","0072,1","0059,1"]}},{"type":"Feature","geometry":{"type":"Point","coordinates":[-1.674269,48.08809]},"properties":{"id":"1459","name":"Henri Fréville","terminus":[],"limits":["07:21:00","20:47:00"],"lines":["0013,1","0122,1"]}},{"type":"Feature","geometry":{"type":"Point","coordinates":[-1.674159,48.091308]},"properties":{"id":"1460","name":"Argonautes","terminus":[],"limits":["07:22:00","20:49:00"],"lines":["0013,1","0122,1"]}},{"type":"Feature","geometry":{"type":"Point","coordinates":[-1.673762,48.093659]},"properties":{"id":"1461","name":"Clemenceau","terminus":[],"limits":["07:23:00","20:50:00"],"lines":["0013,1"]}},{"type":"Feature","geometry":{"type":"Point","coordinates":[-1.670045,48.093478]},"properties":{"id":"1462","name":"Combes","terminus":[],"limits":["07:24:00","20:51:00"],"lines":["0013,1"]}},{"type":"Feature","geometry":{"type":"Point","coordinates":[-1.663129,48.091328]},"properties":{"id":"1463","name":"Binquenais Collège","terminus":[],"limits":["07:27:00","20:54:00"],"lines":["0013,1"]}},{"type":"Feature","geometry":{"type":"Point","coordinates":[-1.666295,48.091295]},"properties":{"id":"1464","name":"Binquenais","terminus":[],"limits":["07:26:00","20:53:00"],"lines":["0013,1"]}},{"type":"Feature","geometry":{"type":"Point","coordinates":[-1.661119,48.086117]},"properties":{"id":"1465","name":"Triangle","terminus":[],"limits":["06:54:00","20:56:00"],"lines":["0013,1","0061,0","0122,0"]}},{"type":"Feature","geometry":{"type":"Point","coordinates":[-1.65386,48.085058]},"properties":{"id":"1466","name":"Hôpital Sud","terminus":[],"limits":["07:30:00","20:58:00"],"lines":["0013,1","0122,0"]}},{"type":"Feature","geometry":{"type":"Point","coordinates":[-1.653273,48.087513]},"properties":{"id":"1467","name":"Le Blosne","terminus":[],"limits":["07:31:00","20:58:00"],"lines":["0013,1","0122,0"]}},{"type":"Feature","geometry":{"type":"Point","coordinates":[-1.645367,48.087383]},"properties":{"id":"1468","name":"La Poterie","terminus":[],"limits":["07:32:00","21:00:00"],"lines":["0013,1"]}},{"type":"Feature","geometry":{"type":"Point","coordinates":[-1.650392,48.100631]},"properties":{"id":"1470","name":"Villebois-Mareuil","terminus":[],"limits":["06:12:00","23:22:00"],"lines":["0001,1"]}},{"type":"Feature","geometry":{"type":"Point","coordinates":[-1.656747,48.113474]},"properties":{"id":"1474","name":"Durafour Strasbourg","terminus":[],"limits":["07:30:00","20:26:00"],"lines":["0067,0"]}},{"type":"Feature","geometry":{"type":"Point","coordinates":[-1.672636,48.104194]},"properties":{"id":"1477","name":"Gares","terminus":[],"limits":["06:29:00","23:49:00"],"lines":["0002,0","0011,1","0001,0"]}},{"type":"Feature","geometry":{"type":"Point","coordinates":[-1.634928,48.131978]},"properties":{"id":"1480","name":"ZA Saint-Sulpice","terminus":[],"limits":["07:23:00","21:03:00"],"lines":["0050,1"]}},{"type":"Feature","geometry":{"type":"Point","coordinates":[-1.642252,48.129789]},"properties":{"id":"1481","name":"Pâtis Tatelin","terminus":[],"limits":["07:22:00","21:02:00"],"lines":["0050,1"]}},{"type":"Feature","geometry":{"type":"Point","coordinates":[-1.635896,48.131875]},"properties":{"id":"1484","name":"ZA Saint-Sulpice","terminus":[],"limits":["07:23:00","20:33:00"],"lines":["0050,0"]}},{"type":"Feature","geometry":{"type":"Point","coordinates":[-1.658769,48.137957]},"properties":{"id":"1485","name":"Saint-Laurent","terminus":[],"limits":["07:12:00","21:01:00"],"lines":["0051,0"]}},{"type":"Feature","geometry":{"type":"Point","coordinates":[-1.659901,48.134801]},"properties":{"id":"1486","name":"Hôtel de Région","terminus":[],"limits":["07:13:00","21:02:00"],"lines":["0051,0"]}},{"type":"Feature","geometry":{"type":"Point","coordinates":[-1.662406,48.131345]},"properties":{"id":"1487","name":"Patton Gast","terminus":[],"limits":["07:14:00","21:03:00"],"lines":["0051,0"]}},{"type":"Feature","geometry":{"type":"Point","coordinates":[-1.661521,48.132299]},"properties":{"id":"1489","name":"Patton Gast","terminus":[],"limits":["07:42:00","20:52:00"],"lines":["0051,1"]}},{"type":"Feature","geometry":{"type":"Point","coordinates":[-1.659114,48.136021]},"properties":{"id":"1490","name":"Hôtel de Région","terminus":[],"limits":["07:43:00","20:53:00"],"lines":["0051,1"]}},{"type":"Feature","geometry":{"type":"Point","coordinates":[-1.658541,48.137951]},"properties":{"id":"1491","name":"Saint-Laurent","terminus":[],"limits":["07:44:00","20:54:00"],"lines":["0051,1"]}},{"type":"Feature","geometry":{"type":"Point","coordinates":[-1.69386,48.133784]},"properties":{"id":"1492","name":"Grand Quartier","terminus":[],"limits":["07:16:00","20:48:00"],"lines":["0052,0","0068,0"]}},{"type":"Feature","geometry":{"type":"Point","coordinates":[-1.693387,48.127175]},"properties":{"id":"1493","name":"Préfecture - ESC","terminus":[],"limits":["07:18:00","20:50:00"],"lines":["0052,0","0068,0","0078,0"]}},{"type":"Feature","geometry":{"type":"Point","coordinates":[-1.70297,48.121217]},"properties":{"id":"1494","name":"Villejean-Université","terminus":["0078,0"],"limits":["08:02:00","20:30:00"],"lines":["0078,0","0078,1"]}},{"type":"Feature","geometry":{"type":"Point","coordinates":[-1.693012,48.126607]},"properties":{"id":"1495","name":"Préfecture - ESC","terminus":[],"limits":["07:23:00","20:53:00"],"lines":["0052,1","0068,1","0078,1"]}},{"type":"Feature","geometry":{"type":"Point","coordinates":[-1.70298,48.120973]},"properties":{"id":"1497","name":"Villejean-Université","terminus":["0082,1","0081,1"],"limits":["06:45:00","21:13:00"],"lines":["0052,0","0082,0","0082,1","0081,1","0081,0"]}},{"type":"Feature","geometry":{"type":"Point","coordinates":[-1.723945,48.116622]},"properties":{"id":"1498","name":"Petit Champeaux","terminus":[],"limits":["07:34:00","21:04:00"],"lines":["0053,0"]}},{"type":"Feature","geometry":{"type":"Point","coordinates":[-1.716029,48.1163]},"properties":{"id":"1499","name":"Colin","terminus":[],"limits":["07:33:00","21:07:00"],"lines":["0014,0","0053,0"]}},{"type":"Feature","geometry":{"type":"Point","coordinates":[-1.704506,48.113203]},"properties":{"id":"1500","name":"Agrocampus","terminus":[],"limits":["07:13:00","21:17:00"],"lines":["0053,1"]}},{"type":"Feature","geometry":{"type":"Point","coordinates":[-1.679768,48.109403]},"properties":{"id":"1501","name":"République","terminus":["0057,1"],"limits":["05:45:00","23:45:00"],"lines":["0057,1","0057,0"]}},{"type":"Feature","geometry":{"type":"Point","coordinates":[-1.705436,48.113945]},"properties":{"id":"1502","name":"Agrocampus","terminus":[],"limits":["07:31:00","21:01:00"],"lines":["0053,0"]}},{"type":"Feature","geometry":{"type":"Point","coordinates":[-1.715924,48.116133]},"properties":{"id":"1503","name":"Colin","terminus":[],"limits":["07:10:00","21:19:00"],"lines":["0014,1","0053,1"]}},{"type":"Feature","geometry":{"type":"Point","coordinates":[-1.723158,48.116353]},"properties":{"id":"1504","name":"Petit Champeaux","terminus":[],"limits":["07:09:00","21:13:00"],"lines":["0053,1"]}},{"type":"Feature","geometry":{"type":"Point","coordinates":[-1.730277,48.106766]},"properties":{"id":"1506","name":"Berthault","terminus":[],"limits":["07:20:00","21:05:00"],"lines":["0054,0","0055,0","0056,0"]}},{"type":"Feature","geometry":{"type":"Point","coordinates":[-1.6751,48.109406]},"properties":{"id":"1507","name":"Lycée Zola","terminus":[],"limits":["06:21:00","22:26:00"],"lines":["0012,0"]}},{"type":"Feature","geometry":{"type":"Point","coordinates":[-1.729127,48.106693]},"properties":{"id":"1508","name":"Berthault","terminus":[],"limits":["07:04:00","21:24:00"],"lines":["0054,1","0055,1","0056,1"]}},{"type":"Feature","geometry":{"type":"Point","coordinates":[-1.674555,48.087822]},"properties":{"id":"1509","name":"Henri Fréville","terminus":["0003,0"],"limits":["06:07:00","23:25:00"],"lines":["0003,0","0003,1"]}},{"type":"Feature","geometry":{"type":"Point","coordinates":[-1.674415,48.087784]},"properties":{"id":"1510","name":"Henri Fréville","terminus":["0061,1","0074,1"],"limits":["06:43:00","21:14:00"],"lines":["0061,0","0061,1","0074,1","0074,0"]}},{"type":"Feature","geometry":{"type":"Point","coordinates":[-1.643466,48.087572]},"properties":{"id":"1511","name":"La Poterie","terminus":["0075,0","0073,1"],"limits":["06:40:00","20:50:00"],"lines":["0075,1","0075,0","0073,1","0073,0"]}},{"type":"Feature","geometry":{"type":"Point","coordinates":[-1.695562,48.085329]},"properties":{"id":"1512","name":"Le Guyader","terminus":[],"limits":["07:38:00","18:50:00"],"lines":["0063,1"]}},{"type":"Feature","geometry":{"type":"Point","coordinates":[-1.648495,48.115378]},"properties":{"id":"1513","name":"Bois Perrin","terminus":[],"limits":["07:21:00","20:39:00"],"lines":["0064,0","0050,0"]}},{"type":"Feature","geometry":{"type":"Point","coordinates":[-1.647648,48.113326]},"properties":{"id":"1514","name":"Moulin de Joué","terminus":[],"limits":["07:21:00","20:40:00"],"lines":["0064,0","0050,0"]}},{"type":"Feature","geometry":{"type":"Point","coordinates":[-1.647569,48.113631]},"properties":{"id":"1515","name":"Moulin de Joué","terminus":[],"limits":["07:17:00","20:57:00"],"lines":["0064,1","0050,1"]}},{"type":"Feature","geometry":{"type":"Point","coordinates":[-1.648367,48.115973]},"properties":{"id":"1516","name":"Bois Perrin","terminus":[],"limits":["07:17:00","20:58:00"],"lines":["0064,1","0050,1"]}},{"type":"Feature","geometry":{"type":"Point","coordinates":[-1.713574,48.118565]},"properties":{"id":"1517","name":"Berry","terminus":[],"limits":["07:02:00","21:24:00"],"lines":["0052,1","0065,1","0077,1","0082,1","0081,1"]}},{"type":"Feature","geometry":{"type":"Point","coordinates":[-1.710572,48.120593]},"properties":{"id":"1518","name":"Bourbonnais","terminus":[],"limits":["06:47:00","20:58:00"],"lines":["0052,0","0065,0","0077,0","0082,0","0081,0"]}},{"type":"Feature","geometry":{"type":"Point","coordinates":[-1.702976,48.121064]},"properties":{"id":"1519","name":"Villejean-Université","terminus":["0065,1","0077,1"],"limits":["07:06:00","21:28:00"],"lines":["0065,0","0065,1","0077,1","0077,0"]}},{"type":"Feature","geometry":{"type":"Point","coordinates":[-1.709574,48.120473]},"properties":{"id":"1520","name":"Bourbonnais","terminus":[],"limits":["07:03:00","21:25:00"],"lines":["0052,1","0065,1","0077,1","0082,1","0081,1","0121,1"]}},{"type":"Feature","geometry":{"type":"Point","coordinates":[-1.713825,48.118462]},"properties":{"id":"1521","name":"Berry","terminus":[],"limits":["06:49:00","20:59:00"],"lines":["0052,0","0065,0","0077,0","0082,0","0081,0"]}},{"type":"Feature","geometry":{"type":"Point","coordinates":[-1.642719,48.113884]},"properties":{"id":"1522","name":"Piletière","terminus":[],"limits":["07:09:00","20:49:00"],"lines":["0067,1"]}},{"type":"Feature","geometry":{"type":"Point","coordinates":[-1.649131,48.114277]},"properties":{"id":"1523","name":"Moulin de Joué","terminus":[],"limits":["07:08:00","20:48:00"],"lines":["0067,1"]}},{"type":"Feature","geometry":{"type":"Point","coordinates":[-1.651278,48.114621]},"properties":{"id":"1524","name":"Hôpital Régnier","terminus":[],"limits":["07:07:00","20:47:00"],"lines":["0067,1"]}},{"type":"Feature","geometry":{"type":"Point","coordinates":[-1.65322,48.114801]},"properties":{"id":"1526","name":"Hôpital Régnier","terminus":[],"limits":["07:29:00","20:25:00"],"lines":["0067,0"]}},{"type":"Feature","geometry":{"type":"Point","coordinates":[-1.649959,48.114569]},"properties":{"id":"1527","name":"Moulin de Joué","terminus":[],"limits":["07:28:00","20:24:00"],"lines":["0067,0"]}},{"type":"Feature","geometry":{"type":"Point","coordinates":[-1.64442,48.113992]},"properties":{"id":"1528","name":"Piletière","terminus":[],"limits":["07:27:00","20:23:00"],"lines":["0067,0"]}},{"type":"Feature","geometry":{"type":"Point","coordinates":[-1.702973,48.121156]},"properties":{"id":"1529","name":"Villejean-Université","terminus":["0068,0"],"limits":["07:36:00","20:20:00"],"lines":["0068,0","0068,1"]}},{"type":"Feature","geometry":{"type":"Point","coordinates":[-1.642714,48.128911]},"properties":{"id":"1530","name":"Pâtis Tatelin","terminus":[],"limits":["07:24:00","20:34:00"],"lines":["0050,0"]}},{"type":"Feature","geometry":{"type":"Point","coordinates":[-1.67439,48.088549]},"properties":{"id":"1534","name":"Henri Fréville","terminus":["0072,1","0080,1","0804,1"],"limits":["05:23:00","23:48:00"],"lines":["0072,1","0072,0","0080,0","0080,1","0804,1"]}},{"type":"Feature","geometry":{"type":"Point","coordinates":[-1.630245,48.12678]},"properties":{"id":"1536","name":"Clos Courtel","terminus":[],"limits":["06:09:00","23:58:00"],"lines":["0004,0"]}},{"type":"Feature","geometry":{"type":"Point","coordinates":[-1.69166,48.131596]},"properties":{"id":"1537","name":"Léonard","terminus":[],"limits":["07:25:00","21:28:00"],"lines":["0014,1","0052,1","0068,1","0078,1"]}},{"type":"Feature","geometry":{"type":"Point","coordinates":[-1.723135,48.107253]},"properties":{"id":"1539","name":"Lemaistre","terminus":[],"limits":["07:19:00","21:04:00"],"lines":["0054,0","0055,0","0056,0"]}},{"type":"Feature","geometry":{"type":"Point","coordinates":[-1.685158,48.109999]},"properties":{"id":"1540","name":"Pont de Bretagne","terminus":[],"limits":["07:11:00","20:57:00"],"lines":["0053,0","0054,0","0055,0","0056,0"]}},{"type":"Feature","geometry":{"type":"Point","coordinates":[-1.68535,48.10992]},"properties":{"id":"1542","name":"Pont de Bretagne","terminus":[],"limits":["07:13:00","21:33:00"],"lines":["0053,1","0054,1","0055,1","0056,1"]}},{"type":"Feature","geometry":{"type":"Point","coordinates":[-1.691889,48.131341]},"properties":{"id":"1543","name":"Léonard","terminus":[],"limits":["06:05:00","23:38:00"],"lines":["0014,0","0004,1","0052,0","0068,0","0078,0"]}},{"type":"Feature","geometry":{"type":"Point","coordinates":[-1.696071,48.084931]},"properties":{"id":"1544","name":"Le Guyader","terminus":[],"limits":["12:32:00","19:24:00"],"lines":["0063,0"]}},{"type":"Feature","geometry":{"type":"Point","coordinates":[-1.708422,48.101549]},"properties":{"id":"1545","name":"Cleunay Stade","terminus":[],"limits":["07:36:00","20:32:00"],"lines":["0013,1"]}},{"type":"Feature","geometry":{"type":"Point","coordinates":[-1.708823,48.101614]},"properties":{"id":"1546","name":"Cleunay Stade","terminus":[],"limits":["08:10:00","20:56:00"],"lines":["0013,0"]}},{"type":"Feature","geometry":{"type":"Point","coordinates":[-1.677942,48.109699]},"properties":{"id":"1550","name":"République","terminus":[],"limits":["06:22:00","23:50:00"],"lines":["0003,1"]}},{"type":"Feature","geometry":{"type":"Point","coordinates":[-1.678228,48.109936]},"properties":{"id":"1551","name":"République","terminus":[],"limits":["24:00:00","24:00:00"],"lines":["0052,1","0081,0"]}},{"type":"Feature","geometry":{"type":"Point","coordinates":[-1.673506,48.110624]},"properties":{"id":"1552","name":"Place Pasteur","terminus":[],"limits":["06:26:00","23:52:00"],"lines":["0003,1"]}},{"type":"Feature","geometry":{"type":"Point","coordinates":[-1.702339,48.121297]},"properties":{"id":"1553","name":"Villejean-Université","terminus":[],"limits":["07:20:00","20:50:00"],"lines":["0052,1"]}},{"type":"Feature","geometry":{"type":"Point","coordinates":[-1.675306,48.113304]},"properties":{"id":"1555","name":"Fossés","terminus":[],"limits":["06:19:00","22:24:00"],"lines":["0012,0"]}},{"type":"Feature","geometry":{"type":"Point","coordinates":[-1.677626,48.1094]},"properties":{"id":"1556","name":"République","terminus":["0067,0"],"limits":["06:22:00","24:00:00"],"lines":["0011,1","0012,0","0067,0","0067,1"]}},{"type":"Feature","geometry":{"type":"Point","coordinates":[-1.67815,48.109698]},"properties":{"id":"1563","name":"République","terminus":["0050,0"],"limits":["07:10:00","24:00:00"],"lines":["0061,0","0122,1","0050,0","0050,1"]}},{"type":"Feature","geometry":{"type":"Point","coordinates":[-1.674405,48.088114]},"properties":{"id":"1564","name":"Henri Fréville","terminus":["0059,1"],"limits":["06:05:00","21:51:00"],"lines":["0059,1","0059,0"]}},{"type":"Feature","geometry":{"type":"Point","coordinates":[-1.677425,48.106213]},"properties":{"id":"1567","name":"Charles de Gaulle","terminus":["0054,1","0055,1"],"limits":["07:07:00","21:38:00"],"lines":["0054,1","0054,0","0055,0","0055,1"]}},{"type":"Feature","geometry":{"type":"Point","coordinates":[-1.713571,48.121028]},"properties":{"id":"1568","name":"Kennedy Guyenne","terminus":["0121,0"],"limits":[null,null],"lines":["0121,0","0121,1"]}},{"type":"Feature","geometry":{"type":"Point","coordinates":[-1.699023,48.098203]},"properties":{"id":"1570","name":"Coeur de Courrouze","terminus":[],"limits":["06:14:00","23:41:00"],"lines":["0013,1","0006,1"]}},{"type":"Feature","geometry":{"type":"Point","coordinates":[-1.699389,48.09829]},"properties":{"id":"1571","name":"Coeur de Courrouze","terminus":[],"limits":["06:33:00","23:54:00"],"lines":["0013,0","0006,0"]}},{"type":"Feature","geometry":{"type":"Point","coordinates":[-1.675219,48.118015]},"properties":{"id":"1572","name":"Vincennes","terminus":[],"limits":["08:25:00","19:40:00"],"lines":["0031,0"]}},{"type":"Feature","geometry":{"type":"Point","coordinates":[-1.690278,48.097045]},"properties":{"id":"1573","name":"Mermoz","terminus":[],"limits":["06:12:00","23:34:00"],"lines":["0057,1"]}},{"type":"Feature","geometry":{"type":"Point","coordinates":[-1.671317,48.103768]},"properties":{"id":"1575","name":"Gares","terminus":["0063,1"],"limits":["07:50:00","19:15:00"],"lines":["0063,1","0063,0"]}},{"type":"Feature","geometry":{"type":"Point","coordinates":[-1.684405,48.105915]},"properties":{"id":"1587","name":"Cité Judiciaire","terminus":[],"limits":["06:18:00","23:45:00"],"lines":["0006,1"]}},{"type":"Feature","geometry":{"type":"Point","coordinates":[-1.703694,48.098019]},"properties":{"id":"1588","name":"Jules Maniez","terminus":[],"limits":["06:13:00","23:40:00"],"lines":["0006,1"]}},{"type":"Feature","geometry":{"type":"Point","coordinates":[-1.703985,48.097935]},"properties":{"id":"1589","name":"Jules Maniez","terminus":[],"limits":["06:34:00","23:55:00"],"lines":["0006,0"]}},{"type":"Feature","geometry":{"type":"Point","coordinates":[-1.69354,48.098899]},"properties":{"id":"1590","name":"Jules Verne","terminus":[],"limits":["06:15:00","23:42:00"],"lines":["0006,1"]}},{"type":"Feature","geometry":{"type":"Point","coordinates":[-1.69368,48.09891]},"properties":{"id":"1591","name":"Jules Verne","terminus":[],"limits":["06:32:00","23:53:00"],"lines":["0006,0"]}},{"type":"Feature","geometry":{"type":"Point","coordinates":[-1.6773,48.105833]},"properties":{"id":"1595","name":"Charles de Gaulle","terminus":["0056,1"],"limits":["07:18:00","20:47:00"],"lines":["0056,1","0056,0"]}},{"type":"Feature","geometry":{"type":"Point","coordinates":[-1.641287,48.11325]},"properties":{"id":"1603","name":"Les Préales","terminus":[],"limits":["06:13:00","23:49:00"],"lines":["0004,0","0006,0","0121,0"]}},{"type":"Feature","geometry":{"type":"Point","coordinates":[-1.640947,48.113551]},"properties":{"id":"1604","name":"Les Préales","terminus":[],"limits":["05:54:00","23:59:00"],"lines":["0004,1","0006,1","0121,1"]}},{"type":"Feature","geometry":{"type":"Point","coordinates":[-1.656509,48.110157]},"properties":{"id":"1605","name":"Pont de Strasbourg","terminus":[],"limits":["05:37:00","23:52:00"],"lines":["0004,0","0006,0","0121,0"]}},